"","price","types","address","latitude","longitude","date","beds","baths","sq.","bath","reception","receptions","bed"
"1","865000","flat","Pages Walk, London SE1","51.495738","-0.081208","2nd Sep 2021","2","2","840","0","0","0","0"
"2","750000","detached","Park Road, Kenley CR8","51.320999","-0.108466","2nd Sep 2021","3","0",NA,"1","1","0","0"
"3","419950","terraced","Anthony Road, London SE25","51.387405","-0.071903","2nd Sep 2021","2","2",NA,"0","0","2","0"
"4","1095000","flat","Pages Walk, London SE1","51.495738","-0.081208","2nd Sep 2021","3","2","968","0","0","0","0"
"5","849995","semi-detached","Inchmery Road, London SE6","51.440248","-0.013402","2nd Sep 2021","4","0",NA,"1","0","3","0"
"6","3e+05","flat","North Block, The Railstore, Kidman Close, Gidea Park, Romford RM2","51.584796","0.2138","2nd Sep 2021","2","0",NA,"1","1","0","0"
"7","625000","flat","Holloway Road, London N7","51.550472","-0.109663","2nd Sep 2021","2","2",NA,"0","1","0","0"
"8","1450000","flat","Netherhall Gardens, Hampstead, London NW3","51.552177","-0.177179","2nd Sep 2021","3","2",NA,"0","1","0","0"
"9","1750000","terraced","Offord Road, London N1","51.543645","-0.111717","2nd Sep 2021","4","2",NA,"0","0","2","0"
"10","465000","flat","Purbrook Estate, Tower Bridge Road, London SE1","51.498665","-0.078751","2nd Sep 2021","2","0",NA,"1","1","0","0"
"11","525000","flat","Hartington Road, London W4","51.481372","-0.274774","2nd Sep 2021","2","0","589","1","1","0","0"
"12","550000","flat","Chrisp Street, London E14","51.514668","-0.014592","2nd Sep 2021","3","2",NA,"0","1","0","0"
"13","7e+05","flat","Deveraux House, Duke Of Wellington Avenue, London SE18","51.4941","0.06686","2nd Sep 2021","2","2",NA,"0","1","0","0"
"14","1e+06","end","Maple Grove, London W5","51.501308","-0.303982","2nd Sep 2021","3","2","1,167","0","0","2","0"
"15","670000","property","Hawkhurst Way, New Malden KT3","51.396448","-0.269297","2nd Sep 2021","5","2",NA,"0","0","2","0"
"16","299995","maisonette","Dorrit Mews, Edmonton N18","51.615413","-0.073343","2nd Sep 2021","3","0",NA,"1","1","0","0"
"17","1175000","flat","College Crescent, London NW3","51.545391","-0.175109","2nd Sep 2021","3","2",NA,"0","1","0","0"
"18","385000","flat","Charter Court, 65B Bridge Street, Pinner HA5","51.595293","-0.384438","2nd Sep 2021","2","0",NA,"1","1","0","0"
"19","1100000","terraced","Derwent, Derby Road, London E9","51.537427","-0.046631","2nd Sep 2021","3","2","872","0","1","0","0"
"20","575000","flat","South Lambeth Road, London SW8","51.479699","-0.123689","2nd Sep 2021","2","0",NA,"1","1","0","0"
"21","207500","property","Uxbridge Road, Hatch End, Pinner HA5","51.606934","-0.375738","2nd Sep 2021","0","0",NA,"1","1","0","1"
"22","550000","semi-detached","Rush Green Road, Romford RM7","51.564399","0.169995","2nd Sep 2021","4","3",NA,"0","1","0","0"
"23","330000","sale","Sailors House, New Aberfeldy Village, 16 Deauville Close E14","51.51287","-0.001802","2nd Sep 2021","0","0","410","1","1","0","0"
"24","5e+05","maisonette","Grosvenor Road, Finchley, London N3","51.606623","-0.197077","2nd Sep 2021","2","0",NA,"1","1","0","0"
"25","370000","terraced","Upton Road, Thornton Heath CR7","51.408071","-0.095708","2nd Sep 2021","3","2",NA,"0","0","2","0"
"26","1625000","detached","Homefield Road, Coulsdon CR5","51.299027","-0.112571","2nd Sep 2021","5","2",NA,"0","0","3","0"
"27","3e+05","sale","Ripon Court, Royal Quay, 9 Dod Street E14","51.5141","-0.0265","2nd Sep 2021","0","0","321","1","1","0","0"
"28","425000","flat","Finchley Road, London NW3","51.543773","-0.175531","2nd Sep 2021","0","0",NA,"1","1","0","1"
"29","675000","terraced","Ridley Avenue, Ealing W13","51.499963","-0.319651","2nd Sep 2021","2","2","724","0","0","0","0"
"30","425000","semi-detached","Avenue Road, Erith DA8","51.4748","0.169201","2nd Sep 2021","3","0",NA,"1","0","2","0"
"31","4200000","flat","Warrington Crescent, Little Venice, London W9","51.52548","-0.183816","2nd Sep 2021","3","3",NA,"0","0","2","0"
"32","875000","cottage","Woodcote House, Wrythe Green Road, Carshalton SM5","51.371345","-0.168659","2nd Sep 2021","4","0",NA,"1","0","3","0"
"33","2100000","terraced","Calthorpe Street, London WC1X","51.525904","-0.114175","2nd Sep 2021","5","0",NA,"1","1","0","0"
"34","280000","flat","High Street, London E15","51.534179","-0.007061","2nd Sep 2021","0","0",NA,"1","1","0","1"
"35","499950","flat","Florence Road, Finsbury Park, London N4","51.570999","-0.10965","2nd Sep 2021","2","0","507","1","1","0","0"
"36","1295000","flat","Seymour Walk, Chelsea, London SW10","51.4856","-0.1819","2nd Sep 2021","2","2","937","0","1","0","0"
"37","850000","semi-detached","Pollards Hill North, Norbury SW16","51.404156","-0.122773","2nd Sep 2021","5","2",NA,"0","0","0","0"
"38","3e+05","flat","Gifford Gardens, London W7","51.52293","-0.344969","2nd Sep 2021","0","0",NA,"1","1","0","1"
"39","2650000","flat","Wimpole Street, Marylebone, London W1G","51.5195","-0.1486","2nd Sep 2021","2","2","1,597","0","1","0","0"
"40","750000","semi-detached","Moorcroft Way, Pinner HA5","51.586167","-0.38462","2nd Sep 2021","3","0",NA,"1","0","2","0"
"41","895000","terraced","St Albans Road, Woodford Green, Essex IG8","51.600927","0.021322","2nd Sep 2021","5","2",NA,"0","0","0","0"
"42","5e+05","terraced","Dorchester Avenue, Palmers Green, London N13","51.619032","-0.092624","2nd Sep 2021","3","0",NA,"1","1","0","0"
"43","375000","flat","Hastings Road, London W13","51.513251","-0.314901","2nd Sep 2021","0","0",NA,"1","1","0","1"
"44","1200000","terraced","Engadine Street, London SW18","51.44448","-0.202638","2nd Sep 2021","3","3",NA,"0","0","2","0"
"45","5e+05","flat","Gatliff Road, London SW1W","51.487207","-0.148358","2nd Sep 2021","0","0",NA,"1","1","0","1"
"46","125000","flat","Gatliff Road, London SW1W","51.487207","-0.148358","2nd Sep 2021","0","0",NA,"1","1","0","1"
"47","1250000","flat","Ladbroke Road, London W11","51.507548","-0.206975","2nd Sep 2021","2","0",NA,"1","1","0","0"
"48","6e+05","semi-detached","Littleheath Road, Selsdon, South Croydon CR2","51.345871","-0.062669","2nd Sep 2021","4","0","1,361","1","0","2","0"
"49","3950000","flat","Queen Anne's Gate, Westminster, London SW1H","51.500872","-0.132372","2nd Sep 2021","3","2",NA,"0","1","0","0"
"50","6e+05","semi-detached","Marlton Street, London SE10","51.486611","0.013157","2nd Sep 2021","2","0",NA,"1","1","0","0"
"51","4e+05","flat","Signia Court, Wembley Hill Road, Wembley, Middlesex HA9","51.555883","-0.286447","2nd Sep 2021","0","0",NA,"1","1","0","1"
"52","489950","flat","Cecil Close, Mount Avenue, London W5","51.524281","-0.302247","2nd Sep 2021","2","0",NA,"1","1","0","0"
"53","750000","flat","Landward Court, Marylebone, London W1H","51.5172","-0.165112","2nd Sep 2021","3","2",NA,"0","1","0","0"
"54","550000","flat","Compton Road, Winchmore Hill N21","51.632083","-0.098534","2nd Sep 2021","2","0",NA,"1","1","0","0"
"55","999950","detached","Cunningham Park, Harrow HA1","51.587723","-0.345769","2nd Sep 2021","5","2",NA,"0","0","3","0"
"56","750000","terraced","Lower Richmond Road, Richmond, Surrey TW9","51.467894","-0.28164","2nd Sep 2021","4","2",NA,"0","0","2","0"
"57","9e+05","mews","Blake Mews, Kew, Richmond, Surrey TW9","51.476182","-0.285735","2nd Sep 2021","2","2",NA,"0","0","2","0"
"58","820000","terraced","Winters Road, Thames Ditton KT7","51.389717","-0.32296","2nd Sep 2021","3","3",NA,"0","0","2","0"
"59","340000","flat","Lyonsdown Road, Barnet EN5","51.644899","-0.178265","2nd Sep 2021","2","0",NA,"1","1","0","0"
"60","4e+05","flat","Coppetts Road, London N10","51.604291","-0.15554","2nd Sep 2021","2","2",NA,"0","1","0","0"
"61","595000","flat","Signia Court, Wembley Hill Road, Wembley, Middlesex HA9","51.555883","-0.286447","2nd Sep 2021","3","0",NA,"1","1","0","0"
"62","350000","sale","Filmer Road, London SW6","51.479768","-0.207349","2nd Sep 2021","0","0",NA,"1","1","0","0"
"63","1400000","flat","Harcourt Terrace, London SW10","51.487737","-0.186463","2nd Sep 2021","2","0",NA,"1","0","0","0"
"64","8e+05","flat","St. George Wharf, London SW8","51.485704","-0.125117","2nd Sep 2021","2","2",NA,"0","1","0","0"
"65","310000","flat","Homerton High Street, Hackney E9","51.54781","-0.045571","2nd Sep 2021","0","0",NA,"1","1","0","1"
"66","1150000","semi-detached","Westbrook Road, Heston, Hounslow TW5","51.483508","-0.377074","2nd Sep 2021","7","3",NA,"0","1","0","0"
"67","1500000","end","Rotherfield Street, Islington, London N1","51.540295","-0.092688","2nd Sep 2021","3","2",NA,"0","0","2","0"
"68","399950","flat","Cumberland Mills Square, London E14","51.487789","-0.005776","2nd Sep 2021","0","0",NA,"1","1","0","1"
"69","725000","maisonette","Brandlehow Road, London SW15","51.461379","-0.207417","2nd Sep 2021","2","2",NA,"0","1","0","0"
"70","475000","terraced","Dirdene Gardens, Epsom KT17","51.337402","-0.25659","2nd Sep 2021","3","0",NA,"1","0","2","0"
"71","399950","flat","Lapford Close, London W9","51.527031","-0.202144","2nd Sep 2021","2","0",NA,"1","1","0","0"
"72","599950","semi-detached","Addington Road, West Wickham BR4","51.369653","-0.00429","2nd Sep 2021","3","0",NA,"1","0","2","0"
"73","675000","terraced","Olive Road, London W5","51.499591","-0.303774","2nd Sep 2021","3","2",NA,"0","1","0","0"
"74","384950","flat","Rommany Road, London SE27","51.427765","-0.089063","2nd Sep 2021","0","0",NA,"1","1","0","1"
"75","1395000","flat","Hilary Mews, London SE1","51.50179","-0.093073","2nd Sep 2021","3","2",NA,"0","1","0","0"
"76","564950","semi-detached","Coldharbour Lane, Hayes, Greater London UB3","51.513129","-0.411886","2nd Sep 2021","3","2",NA,"0","0","2","0"
"77","695000","flat","Christchurch Avenue, Brondesbury NW6","51.544477","-0.209056","2nd Sep 2021","2","2",NA,"0","1","0","0"
"78","8e+05","semi-detached","Broomfield Road, Bexleyheath, Kent DA6","51.451372","0.15","2nd Sep 2021","4","0",NA,"1","0","2","0"
"79","425000","flat","7 Lyell Street, Meade House, London City Island E14","51.512486","0.005958","2nd Sep 2021","0","0",NA,"1","0","0","1"
"80","725000","end","Cottingham Road, London SE20","51.41407","-0.049298","2nd Sep 2021","3","0",NA,"1","1","0","0"
"81","447170","maisonette","Kiln Place, London NW5","51.553442","-0.151135","2nd Sep 2021","2","0",NA,"1","1","0","0"
"82","799999","sale","Grosvenor Avenue, London N5","51.549498","-0.088656","2nd Sep 2021","0","0",NA,"0","0","0","0"
"83","1300000","flat","Crown Lodge, Elystan Street SW3","51.491753","-0.167764","2nd Sep 2021","2","2",NA,"0","1","0","0"
"84","999950","terraced","Boaters Avenue, Brentford TW8","51.484084","-0.313679","2nd Sep 2021","5","3",NA,"0","1","0","0"
"85","425000","flat","Hazellville Road, London N19","51.573007","-0.130877","2nd Sep 2021","0","0",NA,"1","1","0","1"
"86","1200000","flat","Arkwright Road, Hampstead, London NW3","51.551182","-0.182022","2nd Sep 2021","3","2",NA,"0","1","0","0"
"87","148000","sale","Caledonian Road, Islington, London N1","51.540143","-0.116676","2nd Sep 2021","0","0",NA,"1","1","0","0"
"88","625000","semi-detached","Barmor Close, Harrow HA2","51.600647","-0.356902","2nd Sep 2021","4","0",NA,"1","0","2","0"
"89","3e+06","semi-detached","Lessar Avenue, London SW4","51.454724","-0.143885","2nd Sep 2021","7","0","3,488","0","0","0","0"
"90","575000","end","Chatsworth Avenue, Wembley HA9","51.552363","-0.286643","2nd Sep 2021","3","0",NA,"1","0","2","0"
"91","8e+05","terraced","Laburnum Road, London SW19","51.417272","-0.183529","2nd Sep 2021","4","2",NA,"0","0","2","0"
"92","1100000","flat","Gloucester Walk, London W8","51.504808","-0.194848","2nd Sep 2021","0","0",NA,"1","1","0","1"
"93","399950","maisonette","Henley Close, Isleworth TW7","51.476013","-0.335432","2nd Sep 2021","2","0",NA,"1","1","0","0"
"94","475000","end","Waddon Road, Croydon, Surrey CR0","51.371244","-0.116161","2nd Sep 2021","3","0",NA,"1","0","2","0"
"95","550000","semi-detached","Hook Road, Epsom KT19","51.342006","-0.26921","2nd Sep 2021","3","2",NA,"0","0","2","0"
"96","3e+05","terraced","101 Halstead Road, Winchmore Hill, London N21","51.631042","-0.087818","2nd Sep 2021","3","0",NA,"0","0","0","0"
"97","450000","terraced","Rugby Road, Dagenham RM9","51.540004","0.118721","2nd Sep 2021","4","0",NA,"1","1","0","0"
"98","340000","flat","Derbyshire Street, London E2","51.526687","-0.061538","2nd Sep 2021","0","0",NA,"1","1","0","1"
"99","370000","flat","Coutts Crescent, St. Albans Road, London NW5","51.547725","-0.153693","2nd Sep 2021","0","0",NA,"1","1","0","1"
"100","385000","flat","Whitestile Road, Brentford TW8","51.494207","-0.305826","2nd Sep 2021","0","0",NA,"1","1","0","1"
"101","0","flat","City Road, London EC1V","51.529985","-0.0972968780487805","2nd Sep 2021","3","2",NA,"0","1","0","0"
"102","625000","semi-detached","St. Stephen's Road, Hounslow, Semi-Detached House TW3","51.45907","-0.368339","2nd Sep 2021","3","2",NA,"0","0","2","0"
"103","724950","end","Bedser Drive, Greenford / Sudbury Hill Borders UB6","51.555078","-0.344985","2nd Sep 2021","6","3",NA,"0","1","0","0"
"104","240000","flat","Strongbow Crescent, London SE9","51.454498","0.053124","2nd Sep 2021","2","0",NA,"1","1","0","0"
"105","6e+05","flat","Marchmont Street, London WC1N","51.525814","-0.125405","2nd Sep 2021","0","0",NA,"1","1","0","1"
"106","785000","property","Olinda Road, London N16","51.57579","-0.068282","2nd Sep 2021","3","0",NA,"1","1","0","0"
"107","375000","maisonette","Lindley Estate, London SE15","51.479025","-0.068847","2nd Sep 2021","4","0",NA,"1","1","0","0"
"108","650000","flat","Gunnersbury Avenue, Ealing W5","51.507506","-0.290914","2nd Sep 2021","2","0",NA,"1","1","0","0"
"109","295000","flat","Croydon Road, Beckenham BR3","51.405766","-0.03343","2nd Sep 2021","2","0",NA,"1","1","0","0"
"110","650000","detached","Craigerne Road, London SE3","51.478238","0.023647","2nd Sep 2021","3","2",NA,"0","1","0","0"
"111","6e+05","terraced","Green Lane, Ilford IG3","51.56195","0.102978","2nd Sep 2021","5","3",NA,"0","0","3","0"
"112","4200000","flat","Warrington Crescent, London W9","51.52548","-0.183815","2nd Sep 2021","3","3","2,027","0","1","0","0"
"113","550000","property","Winslow Close, Eastcote, Pinner HA5","51.581638","-0.400217","2nd Sep 2021","2","2",NA,"0","1","0","0"
"114","4e+05","terraced","Elizabeth Ride, Edmonton N9","51.635082","-0.051799","2nd Sep 2021","3","0",NA,"1","0","2","0"
"115","850000","detached","Douglas Road, Surbiton KT6","51.3787","-0.295771","2nd Sep 2021","4","2",NA,"0","0","2","0"
"116","550000","flat","Manor Park, London SE13","51.45706","-0.001487","2nd Sep 2021","2","0","817","1","0","0","0"
"117","520000","flat","Broadhurst Gardens, South Hampstead NW6","51.546661","-0.18213","2nd Sep 2021","0","0","527","1","1","0","1"
"118","225000","flat","Longbridge Road, Barking IG11","51.549028","0.102916","2nd Sep 2021","0","0",NA,"1","1","0","1"
"119","270000","flat","Ashford Road, Feltham TW13","51.437648","-0.424697","2nd Sep 2021","2","0",NA,"1","1","0","0"
"120","1850000","maisonette","Crediton Hill, West Hampstead, London NW6","51.550327","-0.188446","2nd Sep 2021","3","2","1,502","0","1","0","0"
"121","425000","flat","Plumbers Row, London E1","51.515701","-0.065826","2nd Sep 2021","0","0",NA,"1","1","0","1"
"122","0",NA,"0","0","0","2nd Sep 2021","0","0",NA,"0","0","0","0"
"123","450000","maisonette","Coldharbour Lane, London SW9","51.465698","-0.102489","2nd Sep 2021","3","0","1,036","1","1","0","0"
"124","4e+05","maisonette","Welbeck Road, Barnet, Hertfordshire EN4","51.642379","-0.165602","2nd Sep 2021","2","0",NA,"1","1","0","0"
"125","350000","flat","Shirland Road, Maida Vale, London W9","51.527084","-0.195585","2nd Sep 2021","0","0",NA,"1","1","0","1"
"126","350000","flat","High Street Colliers Wood, Colliers Wood, London SW19","51.422851","-0.173546","2nd Sep 2021","2","0",NA,"1","1","0","0"
"127","4e+05","flat","Maud Road, London E13","51.533531","0.017083","2nd Sep 2021","3","2",NA,"0","1","0","0"
"128","710000","flat","Beechcroft House, Park View Road, Ealing W5","51.522084","-0.295659","2nd Sep 2021","2","2","962","0","1","0","0"
"129","525000","flat","Brompton Park Crescent, London SW6","51.483061","-0.193283","2nd Sep 2021","0","0",NA,"1","1","0","1"
"130","6e+05","end","Mayfield Road, Walthamstow, London E17","51.595262","-0.037179","2nd Sep 2021","3","0",NA,"1","0","2","0"
"131","1750000","detached","Burrard Road, London NW6","51.554775","-0.194397","2nd Sep 2021","4","2",NA,"0","0","2","0"
"132","650000","terraced","Middleton Gardens, Ilford IG2","51.573435","0.073577","2nd Sep 2021","4","0",NA,"1","0","2","0"
"133","4e+05","terraced","St. Anselms Road, Hayes UB3","51.506222","-0.420512","2nd Sep 2021","2","0",NA,"1","1","0","0"
"134","6e+05","flat","Commercial Road, London E1","51.51507","-0.06667","2nd Sep 2021","2","2",NA,"0","1","0","0"
"135","550000","property","North Street, Carshalton SM5","51.370376","-0.166429","2nd Sep 2021","3","2",NA,"0","0","2","0"
"136","3950000","detached","Park Avenue, Farnborough, Orpington BR6","51.37009","0.05203","2nd Sep 2021","5","3",NA,"0","0","7","0"
"137","1320000","terraced","Coval Road, London SW14","51.462989","-0.273374","2nd Sep 2021","4","2",NA,"0","1","0","0"
"138","475000","flat","Bancroft Road, London E1","51.525863","-0.044955","2nd Sep 2021","2","0","852","1","1","0","0"
"139","350000","flat","Gilmore Road, London SE13","51.45949","-0.004807","2nd Sep 2021","0","0",NA,"1","1","0","1"
"140","4e+05","terraced","Cecil Road, Croydon, Surrey CR0","51.38728","-0.123435","2nd Sep 2021","3","0",NA,"1","0","2","0"
"141","320000","flat","Seymour Road, Mitcham Junction, Mitcham CR4","51.383796","-0.159673","2nd Sep 2021","2","0",NA,"1","1","0","0"
"142","450000","semi-detached","Cambridge Road, Penge SE20, London","51.402267","-0.065086","2nd Sep 2021","3","0",NA,"1","1","0","0"
"143","5850000","flat","York Terrace West, Regents Park, London NW1","51.523519","-0.15428","2nd Sep 2021","3","3",NA,"0","1","0","0"
"144","375000","flat","Meadowview, Ham, Richmond TW10","51.435967","-0.320192","2nd Sep 2021","2","0",NA,"1","1","0","0"
"145","475000","end","Washington Road, Worcester Park KT4","51.381358","-0.237921","2nd Sep 2021","2","0",NA,"1","0","2","0"
"146","525000","flat","Elm Bank Mansions, The Terrace, Barnes SW13","51.472049","-0.253513","2nd Sep 2021","0","0",NA,"1","1","0","1"
"147","525000","flat","Palladian Gardens, London W4","51.486424","-0.255182","2nd Sep 2021","0","0",NA,"1","1","0","1"
"148","460000","flat","Chiswick High Road, London W4","51.490654","-0.284035","2nd Sep 2021","2","0",NA,"1","1","0","0"
"149","6e+05","property","Becket Close, Woodford Green IG8","51.59912","0.054454","2nd Sep 2021","4","3",NA,"0","1","0","0"
"150","4e+05","flat","121 East Ferry Road, London E14","51.496372","-0.013973","2nd Sep 2021","0","0",NA,"1","1","0","1"
"151","375000","flat","Henfield Road, London SW19","51.412308","-0.208848","2nd Sep 2021","0","0",NA,"1","1","0","1"
"152","350000","flat","Hamlet Gardens, London W6","51.494013","-0.241487","2nd Sep 2021","0","0",NA,"1","1","0","1"
"153","191250","flat","Chancery Building, Wandsworth, London SW11","51.481577","-0.135498","2nd Sep 2021","2","0","807","1","0","0","0"
"154","475000","flat","Denmark Hill, London SE5","51.461101","-0.094043","2nd Sep 2021","2","0",NA,"1","0","0","0"
"155","840000","flat","Pinto Tower, Nine Elms Point, Nine Elms SW8","51.48153","-0.127924","2nd Sep 2021","2","2",NA,"0","1","0","0"
"156","615000","flat","Bollo Lane, Acton, London W3","51.501862","-0.278201","2nd Sep 2021","2","2","798","0","0","0","0"
"157","485000","flat","Bollo Lane, Acton, London W3","51.501862","-0.278201","2nd Sep 2021","0","0","535","1","0","0","1"
"158","1175000","terraced","Brocklebank Road, Earlsfield SW18","51.449462","-0.185756","2nd Sep 2021","4","2","1,345","0","1","0","0"
"159","1550000","detached","Cole Park Gardens, Twickenham TW1","51.457433","-0.328129","2nd Sep 2021","5","3",NA,"0","0","3","0"
"160","1400000","semi-detached","Atbara Road, Teddington TW11","51.424447","-0.318525","2nd Sep 2021","4","0",NA,"1","0","2","0"
"161","769000","flat","Lakeside Drive, Park Royal, London NW10","51.531087","-0.285801","2nd Sep 2021","2","2",NA,"0","1","0","0"
"162","690000","flat","Bollo Lane, Acton, London W3","51.501862","-0.278201","2nd Sep 2021","3","2","1,051","0","0","0","0"
"163","525000","semi-detached","Totnes Road, Welling DA16","51.474587","0.114884","2nd Sep 2021","5","0",NA,"1","0","2","0"
"164","5e+05","flat","Sydney Road, Enfield EN2","51.649114","-0.081239","2nd Sep 2021","2","2",NA,"0","1","0","0"
"165","450000","maisonette","Lordship Lane, London N22","51.598354","-0.096573","2nd Sep 2021","3","0",NA,"1","1","0","0"
"166","685000","flat","Bollo Lane, Acton, London W3","51.501862","-0.278201","2nd Sep 2021","3","2","1,051","0","0","0","0"
"167","995000","town","Sir Alexander Close, Acton W3","51.508399","-0.249145","2nd Sep 2021","4","3","2,500","0","1","0","0"
"168","750000","flat","Pilot Walk, London SE10","51.497588","0.012385","2nd Sep 2021","2","2","790","0","1","0","0"
"169","549900","flat","The Shoreline Building, 42 Newnton Close, London N4","51.57316","-0.08542","2nd Sep 2021","0","0",NA,"1","1","0","1"
"170","1150000","semi-detached","Dukes Avenue, New Malden KT3","51.403677","-0.252907","2nd Sep 2021","5","2",NA,"0","0","3","0"
"171","350000","flat","Trinity Court, 221 Marsh Road, Pinner, Middlesex HA5","51.59254","-0.382417","2nd Sep 2021","0","0",NA,"1","0","0","1"
"172","435000","flat","Conifer Court, Inner Park Road, Southfields SW19","51.444855","-0.221274","2nd Sep 2021","2","2",NA,"0","1","0","0"
"173","360000","flat","Trinity Court, 221 Marsh Road, Pinner, Middlesex HA5","51.59254","-0.382417","2nd Sep 2021","0","0",NA,"1","0","0","1"
"174","285000","flat","Belmont Road, Uxbridge, Middlesex UB8","51.548115","-0.478315","2nd Sep 2021","0","0",NA,"1","1","0","1"
"175","4e+05","flat","Ballina Street, London SE23","51.44857","-0.044365","2nd Sep 2021","0","0",NA,"1","1","0","1"
"176","635000","flat","Pinto Tower, Nine Elms Point, Nine Elms SW8","51.48153","-0.127924","2nd Sep 2021","0","0",NA,"1","1","0","1"
"177","465000","maisonette","Como Road, London SE23","51.436746","-0.043121","2nd Sep 2021","2","0",NA,"1","1","0","0"
"178","450000","terraced","Melrose Close, Hayes UB4","51.525187","-0.413331","2nd Sep 2021","4","0",NA,"1","1","0","0"
"179","4e+05","end","Green Lane, Dagenham, Essex RM8","51.561185","0.137814","2nd Sep 2021","3","0",NA,"1","1","0","0"
"180","3e+05","flat","Byron Way, Northolt UB5","51.530323","-0.385285","2nd Sep 2021","2","0",NA,"1","1","0","0"
"181","3e+05","flat","Yunus Khan Close, Walthamstow, London E17","51.578013","-0.018863","2nd Sep 2021","0","0",NA,"1","1","0","1"
"182","550000","terraced","Downsfield Road, Walthamstow, London E17","51.576538","-0.032398","2nd Sep 2021","2","0",NA,"1","1","0","0"
"183","325000","flat","Rutland Walk, Catford SE6","51.43719","-0.032519","2nd Sep 2021","2","0",NA,"1","1","0","0"
"184","450000","flat","Voltaire Road, London SW4","51.464741","-0.131427","2nd Sep 2021","2","0",NA,"1","1","0","0"
"185","425000","flat","Evering Road, London E5","51.560356","-0.061884","2nd Sep 2021","0","0",NA,"1","1","0","1"
"186","560000","flat","Central London Apartments, Victoria Rd, London W3","51.522933","-0.258797","2nd Sep 2021","0","0",NA,"1","1","0","1"
"187","375000","flat","West End Avenue, Pinner HA5","51.59052","-0.385014","2nd Sep 2021","0","0","557","1","1","0","1"
"188","1350000","end","Giesbach Road, Archway, London N19","51.565903","-0.133174","2nd Sep 2021","4","0",NA,"1","0","2","0"
"189","570000","flat","Central London Apartment, Victoria Rd, London W3","51.522933","-0.258797","2nd Sep 2021","0","0",NA,"1","1","0","1"
"190","585000","flat","Comeragh Road, London W14","51.488999","-0.209963","2nd Sep 2021","0","0",NA,"1","1","0","1"
"191","230000","flat","Westfield Close, Enfield, Middlesex EN3","51.652851","-0.033668","2nd Sep 2021","0","0",NA,"1","1","0","1"
"192","499950","flat","Skylark Point, 48 Newnton Close, London N4","51.573498","-0.084609","2nd Sep 2021","0","0",NA,"1","1","0","1"
"193","1275000","flat","Richmond Mansions, Denton Road, Twickenham TW1","51.453658","-0.304681","2nd Sep 2021","3","2",NA,"0","0","2","0"
"194","580000","flat","Central London Apartments, Victoria Rd, London W3","51.522933","-0.258797","2nd Sep 2021","0","0",NA,"1","1","0","1"
"195","2200000","detached","Park Avenue, Farnborough, Orpington BR6","51.370441","0.05774","2nd Sep 2021","5","4",NA,"0","0","4","0"
"196","2250000","terraced","Edge Street, London W8","51.507598","-0.196054","2nd Sep 2021","3","3",NA,"0","1","0","0"
"197","6e+05","flat","Central London Apartment, Victoria Rd, London W3","51.522933","-0.258797","2nd Sep 2021","0","0",NA,"1","1","0","1"
"198","620000","flat","Central London Apartments, Victoria Rd, London W3","51.522933","-0.258797","2nd Sep 2021","0","0",NA,"1","0","0","1"
"199","650000","flat","Central London Apartments, Victoria Rd, London W3","51.522933","-0.258797","2nd Sep 2021","0","0",NA,"1","1","0","1"
"200","535000","flat","East Dulwich Road, East Dulwich SE22","51.461494","-0.070235","2nd Sep 2021","2","2",NA,"0","1","0","0"
"201","475000","terraced","Plumstead High Street, London SE18","51.48627","0.098298","2nd Sep 2021","3","0",NA,"1","1","0","0"
"202","440000","flat","Anna Close, Brownlow Road, London E8","51.537765","-0.069599","2nd Sep 2021","0","0",NA,"1","1","0","1"
"203","280000","flat","Malyons Road, Ladywell SE13","51.455733","-0.020305","2nd Sep 2021","0","0",NA,"1","1","0","1"
"204","7e+05","flat","Central London Apartment, Victoria Rd, London W3","51.522933","-0.258797","2nd Sep 2021","0","0",NA,"1","1","0","1"
"205","529950","terraced","Chamberlain Lane, Pinner HA5","51.59357","-0.406702","2nd Sep 2021","2","2",NA,"0","1","0","0"
"206","720000","flat","Central London Apartments, Victoria Rd, London W3","51.522933","-0.258797","2nd Sep 2021","2","0",NA,"1","1","0","0"
"207","725000","semi-detached","Handsworth Avenue, London E4","51.607964","0.001573","2nd Sep 2021","3","0",NA,"1","1","0","0"
"208","740000","flat","Central London Apartment, Victoria Rd, London W3","51.522933","-0.258797","2nd Sep 2021","2","0",NA,"1","1","0","0"
"209","0","semi-detached","Lambert Avenue, Richmond TW9","51.467155","-0.280092","2nd Sep 2021","4","3",NA,"0","1","0","0"
"210","485000","flat","Trinity Road, London SW17","51.439394","-0.164032","2nd Sep 2021","2","0",NA,"1","1","0","0"
"211","875000","flat","Haverstock Hill, London NW3","51.5494","-0.163914","2nd Sep 2021","2","0","818","1","1","0","0"
"212","1450000","end","Vivienne Close, Twickenham TW1","51.453342","-0.30942","2nd Sep 2021","4","0",NA,"0","0","0","0"
"213","330000","property","Betsham Road, Erith DA8","51.475424","0.184478","2nd Sep 2021","3","0","936","1","1","0","0"
"214","225000","flat","Murray Grove, London N1","51.530148","-0.09082","2nd Sep 2021","0","0",NA,"1","0","0","1"
"215","4e+05","flat","Upper Brighton Road, Surbiton KT6","51.385253","-0.3001","2nd Sep 2021","0","0",NA,"1","1","0","1"
"216","425000","flat","Lily Close, London W14","51.493637","-0.21536","2nd Sep 2021","0","0",NA,"1","1","0","1"
"217","2850000","flat","Circus Road West, Battersea Power Station, Nine Elms, London SW11","51.480731","-0.139366","2nd Sep 2021","3","3","1,421","0","0","0","0"
"218","650000","terraced","Elphinstone Road, Walthamstow, London E17","51.593151","-0.026509","2nd Sep 2021","3","0",NA,"1","1","0","0"
"219","650000","semi-detached","Wise Lane, London NW7","51.611229","-0.227382","2nd Sep 2021","3","0",NA,"1","0","2","0"
"220","435000","flat","Field End Road, Eastcote HA4","51.574829","-0.39577","2nd Sep 2021","2","2",NA,"0","0","0","0"
"221","545000","semi-detached","Kings Avenue, Woodford Green, Essex IG8","51.61301","0.037219","2nd Sep 2021","3","0",NA,"1","0","3","0"
"222","275000","maisonette","Chalford Walk, Woodford Green, Essex IG8","51.599929","0.043781","2nd Sep 2021","2","0",NA,"1","1","0","0"
"223","0",NA,"0","0","0","2nd Sep 2021","0","0",NA,"0","0","0","0"
"224","540000","property","New Crescent Yard, Acton Lane, Harlesden, London NW10","51.536158","-0.248401","2nd Sep 2021","2","0",NA,"1","1","0","0"
"225","450000","flat","Ashton Reach, Surrey Quays, London SE16","51.491533","-0.03631","2nd Sep 2021","0","0",NA,"1","0","0","1"
"226","325000","flat","Conington Road, Lewisham, London SE13","51.467728","-0.013806","2nd Sep 2021","0","0",NA,"1","1","0","1"
"227","2500000","flat","Kidderpore Avenue, Hampstead, London NW3","51.557679","-0.194559","2nd Sep 2021","4","4",NA,"0","0","2","0"
"228","795000","flat","Imperial Court, Shepherds Hill, Highgate, London N6","51.577854","-0.13792","2nd Sep 2021","2","2",NA,"0","1","0","0"
"229","325000","flat","Boundfield Road, Catford, London SE6","51.43493","0.00687","2nd Sep 2021","2","2",NA,"0","1","0","0"
"230","725000","flat","Belvedere Row Apartments, Fountain Park Way, London W12","51.511787","-0.221873","2nd Sep 2021","0","0",NA,"1","1","0","1"
"231","350000","flat","Willesden Lane, Brondesbury, London NW6","51.544055","-0.210328","2nd Sep 2021","0","0",NA,"1","1","0","1"
"232","1700000","semi-detached","Burrows Road, Kensal Green, London NW10","51.531919","-0.222352","2nd Sep 2021","4","2",NA,"0","1","0","0"
"233","5e+05","flat","All Souls Avenue, Willesden Green, London NW10","51.540296","-0.226913","2nd Sep 2021","3","0",NA,"1","0","2","0"
"234","5e+05","flat","Dobson Walk, Camberwell, London SE5","51.48001","-0.089259","2nd Sep 2021","2","0",NA,"1","1","0","0"
"235","550000","flat","Camberwell Grove, Camberwell, London SE5","51.473279","-0.089191","2nd Sep 2021","2","0",NA,"1","1","0","0"
"236","425000","flat","East Dulwich Grove, East Dulwich, London SE22","51.457733","-0.08283","2nd Sep 2021","0","0",NA,"1","1","0","1"
"237","530000","flat","Peartree Way, Greenwich, London SE10","51.495004","0.013556","1st Sep 2021","2","0",NA,"1","1","0","0"
"238","465000","end","Hamilton Crescent, Harrow HA2","51.564072","-0.372129","1st Sep 2021","3","0",NA,"1","1","0","0"
"239","725000","end","Torbay Road, Harrow HA2","51.566953","-0.38217","1st Sep 2021","5","2",NA,"0","1","0","0"
"240","350000","flat","Lordship Lane, Dulwich SE22","51.452278","-0.074165","1st Sep 2021","0","0",NA,"0","0","0","1"
"241","1950000","flat","Elsworthy Terrace, London NW3","51.5409","-0.165141","1st Sep 2021","3","3","1,574","0","0","2","0"
"242","1600000","terraced","West Mews, London SW1V","51.490686","-0.143282","1st Sep 2021","2","2",NA,"0","0","0","0"
"243","470000","flat","Princess Park Manor, Royal Drive, London N11","51.613903","-0.145591","1st Sep 2021","2","2",NA,"0","1","0","0"
"244","4e+05","property","Ethelburga Street, London SW11","51.476859","-0.167819","1st Sep 2021","2","0",NA,"1","1","0","0"
"245","565000","end","Cairns Avenue, London SW16","51.405167","-0.14187","1st Sep 2021","4","3",NA,"0","1","0","0"
"246","430000","flat","Birchwood Court, Godstone Road, Kenley CR8","51.319694","-0.087614","1st Sep 2021","3","2",NA,"0","1","0","0"
"247","250000","flat","Stable Walk, East Finchley N2","51.602003","-0.16964","1st Sep 2021","0","0",NA,"1","1","0","1"
"248","160000","property","Cedar Road, Sutton SM2","51.357671","-0.19067","1st Sep 2021","0","0",NA,"1","1","0","1"
"249","325000","flat","36 Kingswood Drive, Sutton SM2","51.350584","-0.197082","1st Sep 2021","2","2",NA,"0","1","0","0"
"250","875000","detached","Purley Bury Avenue, Purley CR8","51.338379","-0.104006","1st Sep 2021","4","2",NA,"0","0","2","0"
"251","350000","terraced","Brewery Road, London SE18","51.485786","0.081856","1st Sep 2021","2","0",NA,"1","1","0","0"
"252","825000","flat","Farleigh Road, London N16","51.5556","-0.06882","1st Sep 2021","3","2",NA,"0","1","0","0"
"253","565000","flat","Farleigh Road, London N16","51.5556","-0.06882","1st Sep 2021","0","0",NA,"1","1","0","1"
"254","795000","flat","Farleigh Road, London N16","51.5556","-0.06882","1st Sep 2021","2","2",NA,"0","1","0","0"
"255","450000","semi-detached","Capel Road, Enfield EN1","51.67542","-0.05408","1st Sep 2021","3","0",NA,"1","0","2","0"
"256","995000","flat","Clifton Road, London N8","51.577862","-0.128409","1st Sep 2021","3","0",NA,"1","1","0","0"
"257","4750000","flat","Blore House, Coleridge Gardens, Kings Chelsea, London SW10","51.481264","-0.186996","1st Sep 2021","4","4",NA,"0","0","2","0"
"258","385000","flat","Strathearn Road, Wimbledon SW19","51.429661","-0.198531","1st Sep 2021","0","0","641","1","1","0","1"
"259","1095000","semi-detached","Odessa Road, London E7","51.551609","0.01796","1st Sep 2021","4","0",NA,"1","0","3","0"
"260","10500000","detached","Courtenay Avenue, Highgate, London N6","51.574629","-0.167824","1st Sep 2021","7","7",NA,"0","0","6","0"
"261","220000","sale","Brindley Place, Uxbridge, Middlesex UB8","51.520804","-0.482218","1st Sep 2021","0","0",NA,"1","0","0","1"
"262","1900000","mews","Hansard Mews, West Kennington W14","51.503028","-0.215451","1st Sep 2021","8","3",NA,"0","0","3","0"
"263","249950","flat","Titus Lodge, 44 Varcoe Gardens, Hayes UB3","51.518343","-0.432595","1st Sep 2021","0","0",NA,"0","0","0","1"
"264","375000","flat","Knatchbull Road, London SE5","51.472766","-0.103008","1st Sep 2021","0","0",NA,"0","0","0","1"
"265","675000","terraced","Longley Road, London SW17","51.422305","-0.170672","1st Sep 2021","3","0",NA,"1","1","0","0"
"266","625000","detached","Wilhelmina Avenue, Coulsdon CR5","51.30358","-0.144724","1st Sep 2021","5","0",NA,"0","0","0","0"
"267","1250000","terraced","Talfourd Road, Peckham Rye SE15","51.472649","-0.078145","1st Sep 2021","3","0","1,503","1","0","3","0"
"268","675000","flat","Wandsworth Road, London SW8","51.46944","-0.140797","1st Sep 2021","2","2",NA,"0","1","0","0"
"269","425000","flat","Windsor Court, Mostyn Grove, Bow, London E3","51.530137","-0.025509","1st Sep 2021","2","0",NA,"0","0","0","0"
"270","375000","flat","Bittacy Hill, Mill Hill East NW7","51.606911","-0.207944","1st Sep 2021","2","0",NA,"1","1","0","0"
"271","375000","flat","Park Gate Court, High Street, Hampton Hill, Hampton TW12","51.426645","-0.355556","1st Sep 2021","3","0",NA,"1","1","0","0"
"272","1450000","terraced","Cranmore Way, Muswell Hill, Greater London N10","51.58767","-0.13579","1st Sep 2021","4","2",NA,"0","0","3","0"
"273","8e+05","property","Bowness Crescent, Kingston Vale SW15","51.427722","-0.260088","1st Sep 2021","3","0",NA,"1","1","0","0"
"274","474000","semi-detached","Wickham Road, Shirley, Croydon, Surrey CR0","51.374934","-0.048733","1st Sep 2021","3","0",NA,"0","0","0","0"
"275","735000","flat","Highgate Road, Dartmouth Park, London NW5","51.555186","-0.144804","1st Sep 2021","2","2","901","0","1","0","0"
"276","1220000","flat","Asquith House, West End Gate, Marylebone W2","51.520752","-0.171963","1st Sep 2021","2","2",NA,"0","1","0","0"
"277","5e+05","maisonette","Claire Court, North Finchley, London N12","51.616896","-0.180683","1st Sep 2021","2","0",NA,"1","1","0","0"
"278","535000","flat","Colinsdale, Camden Walk, London N1","51.535368","-0.102728","1st Sep 2021","0","0",NA,"1","1","0","1"
"279","1175000","flat","Castleton Court, 4-5 Cleveland Gardens, London W2","51.515585","-0.182272","1st Sep 2021","2","2",NA,"0","1","0","0"
"280","8e+05","detached","Pole Hill Road, Hillingdon, Middlesex UB10","51.532813","-0.443517","1st Sep 2021","5","0",NA,"0","0","0","0"
"281","680000","flat","Aurora Point, Plough Way, London SE16","51.492853","-0.036758","1st Sep 2021","3","2",NA,"0","0","0","0"
"282","520000","flat","""Block D - Type 18"" at Silvertown Way, London E16","51.512486","0.010882","1st Sep 2021","0","0",NA,"0","1","0","1"
"283","645000","flat","""Block D - Type 24W"" at Silvertown Way, London E16","51.512486","0.010882","1st Sep 2021","2","0",NA,"0","1","0","0"
"284","690000","flat","""Block D - Type 35"" at Silvertown Way, London E16","51.512486","0.010882","1st Sep 2021","3","0",NA,"0","0","2","0"
"285","695000","flat","""Block D - Type 36"" at Silvertown Way, London E16","51.512486","0.010882","1st Sep 2021","3","0",NA,"0","0","2","0"
"286","525000","maisonette","Carnarvon Road, Stratford, London E15","51.545538","0.011719","1st Sep 2021","3","2",NA,"0","1","0","0"
"287","235000","sale","Bittern Court, Edward Street, London SE8","51.480483","-0.027297","1st Sep 2021","0","0",NA,"1","1","0","0"
"288","550000","flat","Dartmouth Park Avenue, Dartmouth Park, London NW5","51.561179","-0.142038","1st Sep 2021","0","0",NA,"1","1","0","1"
"289","315000","flat","Arundel Court, Jubilee Place, London SW3","51.490174","-0.165917","1st Sep 2021","0","0",NA,"1","1","0","1"
"290","5250000","detached","Briar Walk, Putney, London SW15","51.462701","-0.233537","1st Sep 2021","7","4",NA,"0","0","3","0"
"291","310000","flat","Dairyman Close, Cricklewood NW2","51.559319","-0.212412","1st Sep 2021","0","0",NA,"1","1","0","1"
"292","799000","semi-detached","West Way, Neasden, London NW10","51.560864","-0.257695","1st Sep 2021","4","0",NA,"0","0","0","0"
"293","1600000","terraced","Bridstow Place, Notting Hill, London W2","51.516556","-0.19509","1st Sep 2021","2","2",NA,"0","1","0","0"
"294","1550000","flat","Clarence Gate Gardens, Glentworth Street, London NW1","51.523841","-0.159816","1st Sep 2021","4","0","1,471","0","0","0","0"
"295","1100000","detached","Effingham Road, Long Ditton, Surbiton KT6","51.387763","-0.318231","1st Sep 2021","3","0",NA,"0","0","0","0"
"296","9e+05","end","Weavers Way, Camden, London NW1","51.53999","-0.13252","1st Sep 2021","3","0",NA,"1","1","0","0"
"297","550000","flat","Skegness House, Sutterton Street, London N7","51.544007","-0.118204","1st Sep 2021","3","2",NA,"0","1","0","0"
"298","799950","terraced","Alexandra Road, Hendon NW4","51.589129","-0.215962","1st Sep 2021","3","3","1,309","0","0","2","0"
"299","995000","flat","Fleet Road, London NW3","51.553451","-0.160967","1st Sep 2021","3","2",NA,"0","1","0","0"
"300","355000","sale","Apartment, Oakland Quay E14","51.496836","-0.015884","1st Sep 2021","0","0",NA,"1","1","0","0"
"301","355000","sale","Apartment, Oakland Quay E14","51.496836","-0.015884","1st Sep 2021","0","0",NA,"1","1","0","0"
"302","360000","sale","Baltimore Wharf, London E14","51.496836","-0.015884","1st Sep 2021","0","0",NA,"1","0","0","0"
"303","225000","flat","Peerless Drive, Harefield, Middlesex UB9","51.589767","-0.484589","1st Sep 2021","0","0",NA,"0","0","0","1"
"304","725000","terraced","Woodville Road, South Woodford E18","51.592098","0.031267","1st Sep 2021","4","2","1,425","0","1","0","0"
"305","9e+05","maisonette","Kentish Town Road, London NW1","51.5432","-0.141484","1st Sep 2021","4","2",NA,"0","1","0","0"
"306","475000","town","Addison Road, London SE25","51.39756","-0.069923","1st Sep 2021","3","0",NA,"0","0","0","0"
"307","525000","terraced","Kimberley Road, Croydon, Surrey CR0","51.390919","-0.104943","1st Sep 2021","4","0",NA,"0","0","0","0"
"308","6e+05","end","Dartmouth Road, Ruislip, Middlesex HA4","51.562574","-0.407789","1st Sep 2021","3","0",NA,"0","0","0","0"
"309","550000","flat","Walsingham House, 1331 High Road, Whetstone N20","51.631976","-0.175878","1st Sep 2021","2","2",NA,"0","1","0","0"
"310","1600000","for","Torrington Park, Finchley N12","51.616887","-0.168351","1st Sep 2021","0","0",NA,"0","0","0","0"
"311","1e+06","flat","Cleveland Road, London N1","51.540272","-0.086834","1st Sep 2021","3","2",NA,"0","1","0","0"
"312","475000","terraced","Hereford Way, Chessington, Surrey, . KT9","51.366264","-0.313402","1st Sep 2021","4","0",NA,"1","0","2","0"
"313","2150000","terraced","Fairlawn Grove, London W4","51.495708","-0.268234","1st Sep 2021","5","2",NA,"0","0","2","0"
"314","635000","terraced","Townsend Road, London N15","51.581134","-0.070945","1st Sep 2021","2","0",NA,"1","1","0","0"
"315","1100000","flat","Evershed Walk, London W4","51.497103","-0.265818","1st Sep 2021","2","2",NA,"0","1","0","0"
"316","3e+05","flat","South Lane, New Malden KT3","51.38634","-0.255967","1st Sep 2021","2","0",NA,"1","1","0","0"
"317","899950","semi-detached","Timbercroft, Epsom KT19","51.369661","-0.262764","1st Sep 2021","6","4",NA,"0","0","3","0"
"318","4e+05","maisonette","Whittington Way, Pinner HA5","51.585604","-0.3801","1st Sep 2021","2","0",NA,"1","1","0","0"
"319","250000","flat","Badgers Close, Harrow, Middlesex HA1","51.580136","-0.347834","1st Sep 2021","0","0",NA,"1","1","0","1"
"320","9e+05","detached","Tyburn Lane, Harrow HA1","51.577294","-0.333946","1st Sep 2021","3","2",NA,"0","1","0","0"
"321","469950","semi-detached","Lower Court Road, Epsom, Surrey. KT19","51.342365","-0.271019","1st Sep 2021","3","2",NA,"0","0","2","0"
"322","7e+05","property","Blue Anchor Lane, London SE16","51.493317","-0.063562","1st Sep 2021","2","2",NA,"0","0","0","0"
"323","750000","flat","Newton Road, Notting Hill, London, UK W2","51.515884","-0.190739","1st Sep 2021","2","0",NA,"1","1","0","0"
"324","1190000","flat","Dolben Court, Montaigne Close, London SW1P","51.492217","-0.130983","1st Sep 2021","2","2",NA,"0","1","0","0"
"325","121000","flat","Windsor House, 2 Mountfield Way, St Mary Cray, Orpington, Greater London BR5","51.393111","0.114861","1st Sep 2021","0","0",NA,"0","0","0","1"
"326","79500","flat","Panta House, 4 Old Barn Lane, Kenley, Surrey CR8","51.3201746705882","-0.101534711764706","1st Sep 2021","0","0",NA,"0","0","0","1"
"327","590000","flat","Coster Avenue, London N4","51.5662199819495","-0.0965203032490975","1st Sep 2021","2","0","711","1","1","0","0"
"328","350000","flat","Allfarthing Lane, London SW18","51.452735","-0.185677","1st Sep 2021","0","0",NA,"1","1","0","1"
"329","8e+05","flat","St. John Street, London EC1V","51.52473","-0.103876","1st Sep 2021","2","2",NA,"0","0","0","0"
"330","265000","flat","Camden Road, Sutton SM1","51.362602","-0.198506","1st Sep 2021","0","0",NA,"1","1","0","1"
"331","350000","flat","Saffron Court, 17 Ebony Crescent, Cockfosters EN4","51.644297","-0.147271","1st Sep 2021","0","0",NA,"1","1","0","1"
"332","1200000","bungalow","Parkstone Avenue, Hornchurch RM11","51.569599","0.230796","1st Sep 2021","3","2",NA,"0","0","2","0"
"333","539950","flat","Birken Court, Rickmansworth Road, Northwood, Middlesex HA6","51.61845","-0.44329","1st Sep 2021","4","3",NA,"0","1","0","0"
"334","1720000","flat","Bondway, London SW8","51.483481","-0.125103","1st Sep 2021","2","2",NA,"0","1","0","0"
"335","5e+06","sale","Canonbury Lane, London N1","51.543019","-0.102092","1st Sep 2021","0","0",NA,"0","0","0","0"
"336","2e+06","terraced","Felden Street, London SW6","51.475595","-0.207939","1st Sep 2021","3","3",NA,"0","1","0","0"
"337","650000","semi-detached","Falcon Court, Albert Road, London E18","51.591105","0.032485","1st Sep 2021","2","0",NA,"0","0","0","0"
"338","1400000","flat","St. Gabriel Walk, London SE1","51.493488","-0.101543","1st Sep 2021","3","2",NA,"0","1","0","0"
"339","875000","flat","Montpelier Row, Blackheath, London SE3","51.467382","0.009114","1st Sep 2021","2","2",NA,"0","1","0","0"
"340","775000","flat","Walton-Clark House, Brigade Court, Southwark SE1","51.501745","-0.098385","1st Sep 2021","0","0",NA,"0","1","0","1"
"341","2050000","flat","York Street, London W1H","51.519915","-0.159951","1st Sep 2021","3","3",NA,"0","0","2","0"
"342","1150000","terraced","Princes Road, Richmond, Surrey TW10","51.460649","-0.294753","1st Sep 2021","3","2",NA,"0","0","0","0"
"343","447500","flat","Central Square, Ealing W7","51.52303","-0.33181","1st Sep 2021","2","2","720","0","1","0","0"
"344","750000","detached","Manor Road, Romford RM1","51.575045","0.196783","1st Sep 2021","3","2",NA,"0","0","3","0"
"345","450000","property","Chandos Road, Stratford, London E15","51.550125","-0.003115","1st Sep 2021","3","0",NA,"1","1","0","0"
"346","4e+05","maisonette","Meredith Street, Plaistow, London E13","51.524641","0.021095","1st Sep 2021","3","0",NA,"1","1","0","0"
"347","1900000","terraced","Lonsdale Road, Barnes, London SW13","51.474449","-0.250593","1st Sep 2021","5","3",NA,"0","0","2","0"
"348","460000","flat","Cena House, Purley, Kenley CR8","51.32219","-0.106082","1st Sep 2021","2","2",NA,"0","1","0","0"
"349","5e+05","flat","Cena House, Purley, Kenley CR8","51.32219","-0.106082","1st Sep 2021","2","2",NA,"0","1","0","0"
"350","3e+05","flat","Hook Road, Surbiton KT6","51.380592","-0.301357","1st Sep 2021","0","0",NA,"1","1","0","1"
"351","220000","flat","Edison Road, Welling, Kent DA16","51.469811","0.096897","1st Sep 2021","0","0",NA,"1","1","0","1"
"352","375000","semi-detached","Hook Lane, South Welling, Kent DA16","51.460241","0.104055","1st Sep 2021","2","0",NA,"1","0","2","0"
"353","365000","flat","Milton Road, Harrow HA1","51.589904","-0.336317","1st Sep 2021","2","0",NA,"1","1","0","0"
"354","750000","flat","Tyssen Street, Hackney, London E8","51.54668","-0.071335","1st Sep 2021","3","2",NA,"0","1","0","0"
"355","275000","sale","Adelaide Road, Swiss Cottage, London NW3","51.542482","-0.171341","1st Sep 2021","0","0",NA,"1","1","0","0"
"356","425000","flat","Oliver Road, Leyton, London E10","51.561444","-0.015213","1st Sep 2021","2","2",NA,"0","1","0","0"
"357","775000","flat","Bloomsbury Terrace, 7 Huntley Street, Bloomsbury, London WC1E","51.521452","-0.133317","1st Sep 2021","2","0",NA,"1","1","0","0"
"358","3250000","flat","Soho Thirteen Apartments, 20 Ingestre Place, Soho, London W1F","51.513524","-0.135663","1st Sep 2021","2","2",NA,"0","1","0","0"
"359","415000","flat","Bramah Road, London SW9","51.473831","-0.108565","1st Sep 2021","0","0",NA,"1","1","0","1"
"360","345000","terraced","Palace Road, Bromley BR1","51.40968","0.020537","1st Sep 2021","0","0",NA,"1","1","0","1"
"361","4e+05","flat","Blackshaw Road, London SW17","51.423806","-0.173693","1st Sep 2021","2","0",NA,"1","1","0","0"
"362","0","property","Moore Park Road, London SW6","51.480007","-0.189815","1st Sep 2021","5","5","2,981","0","0","2","0"
"363","175000","terraced","67 Sydney Road, Sutton, Surrey SM1","51.367027","-0.20181","1st Sep 2021","2","0",NA,"0","0","0","0"
"364","80000","flat","Flat 67 Durrington Tower, Wandsworth Road, London SW8","51.47086","-0.140513","1st Sep 2021","0","0",NA,"0","0","0","1"
"365","485000","terraced","Goat Lane, Enfield EN1","51.666515","-0.065055","1st Sep 2021","3","0",NA,"1","0","2","0"
"366","1225000","block","Finchley, London N3","51.6","-0.195","1st Sep 2021","3","3","1,741","0","1","0","0"
"367","450000","flat","Opal Street, London SE11","51.490346","-0.104515","1st Sep 2021","3","0",NA,"1","1","0","0"
"368","1400000","flat","Wellington House, 70 Buckingham Gate, London SW1E","51.498966","-0.137492","1st Sep 2021","2","2",NA,"0","0","2","0"
"369","475000","end","St. Annes Road, Wembley HA0","51.553867","-0.30083","1st Sep 2021","2","0",NA,"1","0","2","0"
"370","3300000","terraced","Park View, Parkside, Wimbledon SW19","51.4335957066667","-0.219362153333333","1st Sep 2021","4","3",NA,"0","0","3","0"
"371","2350000","detached","Montana Road, Wimbledon, London SW20","51.413157","-0.226114","1st Sep 2021","5","2",NA,"0","0","3","0"
"372","1295000","flat","Lingfield Road, Wimbledon, London SW19","51.424385","-0.219336","1st Sep 2021","2","2",NA,"0","0","2","0"
"373","4450000","terraced","Meard Street, Soho, London W1F","51.5132","-0.133","1st Sep 2021","3","2","2,285","0","0","3","0"
"374","450000","sale","Bezier Apartments, 91 City Road, Shoreditch, London EC1Y","51.524915","-0.087002","1st Sep 2021","0","0",NA,"1","1","0","0"
"375","63750","flat","Mayes View, Meadow Road, Barking IG11","51.536127","0.103229","1st Sep 2021","0","0",NA,"1","1","0","1"
"376","63750","flat","Mayes View, Meadow Road, Barking IG11","51.536127","0.103229","1st Sep 2021","0","0",NA,"1","1","0","1"
"377","259995","flat","Gilbert Street, Enfield EN3","51.671993","-0.04399","1st Sep 2021","0","0",NA,"1","1","0","1"
"378","4300000","terraced","Retreat Road, Richmond, Surrey TW9","51.459355","-0.307857","1st Sep 2021","5","5",NA,"0","0","3","0"
"379","359999","flat","Marcus Court, London E15","51.535973","0.009451","1st Sep 2021","3","0",NA,"1","1","0","0"
"380","2250000","detached","Erpingham Road, Putney, London SW15","51.466437","-0.227216","1st Sep 2021","5","3",NA,"0","0","4","0"
"381","1600000","terraced","Kyrle Road, London SW11","51.455459","-0.156234","1st Sep 2021","4","2",NA,"0","1","0","0"
"382","850000","flat","Beaufort Street, Chelsea, London SW3","51.483372","-0.174048","1st Sep 2021","2","0","694","1","1","0","0"
"383","6250000","mews","Salisbury Place, Marylebone, London W1H","51.520975","-0.160033","1st Sep 2021","5","5",NA,"0","0","3","0"
"384","995000","flat","The Claves, Millbrook Park, Mill Hill, London NW7","51.61072","-0.209498","1st Sep 2021","2","2",NA,"0","1","0","0"
"385","807000","sale","Bondway, London SW8","51.483481","-0.125103","1st Sep 2021","0","0",NA,"1","1","0","0"
"386","940000","flat","Bondway, London SW8","51.483481","-0.125103","1st Sep 2021","0","0",NA,"1","1","0","1"
"387","949950","semi-detached","Greystoke Avenue, Pinner HA5","51.596096","-0.364675","1st Sep 2021","4","2",NA,"0","0","2","0"
"388","410000","flat","Highbury Hill, London N5","51.556632","-0.103632","1st Sep 2021","0","0",NA,"1","1","0","1"
"389","2950000","flat","Wynnstay Gardens, Allen Street, London W8","51.499357","-0.195871","1st Sep 2021","4","2",NA,"0","0","2","0"
"390","1250000","semi-detached","Briar Avenue, London SW16","51.418437","-0.118936","1st Sep 2021","6","4",NA,"0","0","2","0"
"391","1395000","terraced","Fullerton Road, Wandsworth SW18","51.458254","-0.18674","1st Sep 2021","4","2","1,582","0","1","0","0"
"392","950000","property","Independent Place, London E8","51.551649","-0.071038","1st Sep 2021","2","2",NA,"0","1","0","0"
"393","280000","flat","Wales Avenue, Carshalton SM5","51.361511","-0.170704","1st Sep 2021","0","0",NA,"1","1","0","1"
"394","2095000","flat","Randolph Avenue, Maida Vale, London W9","51.531741","-0.187872","1st Sep 2021","3","2",NA,"0","1","0","0"
"395","730000","flat","Harland House, 30-34 Woodfield Place, Maida Vale, London W9","51.523655","-0.201167","1st Sep 2021","2","2",NA,"0","1","0","0"
"396","2850000","terraced","Stokenchurch Street, Peterborough Estate, Fulham, London SW6","51.475075","-0.194006","1st Sep 2021","6","4",NA,"0","0","3","0"
"397","395000","property","Rawson Street, London SW11","51.474822","-0.151349","1st Sep 2021","2","0",NA,"1","1","0","0"
"398","330000","flat","Selcroft Road, Purley CR8","51.337392","-0.108702","1st Sep 2021","0","0",NA,"1","1","0","1"
"399","1295000","semi-detached","Williams Lane, East Sheen SW14","51.470426","-0.271596","1st Sep 2021","4","3",NA,"0","1","0","0"
"400","349950","flat","Sheen Lane, London SW14","51.466941","-0.266976","1st Sep 2021","0","0",NA,"1","1","0","1"
"401","499950","flat","Deanhill Court, Upper Richmond Road West SW14","51.463391","-0.276281","1st Sep 2021","2","0",NA,"1","1","0","0"
"402","470000","flat","Sheen Court, Richmond TW10","51.463788","-0.282471","1st Sep 2021","0","0",NA,"1","1","0","1"
"403","685000","terraced","Abbey Road, St. John's Wood NW8, London,","51.537737","-0.187158","1st Sep 2021","3","2",NA,"0","1","0","0"
"404","795000","property","Elmbourne Road, London SW17","51.434816","-0.150764","1st Sep 2021","2","2",NA,"0","1","0","0"
"405","925000","maisonette","Tantallon Road, London SW12","51.445328","-0.156455","1st Sep 2021","3","2",NA,"0","1","0","0"
"406","6e+05","semi-detached","Beaumont Road, Petts Wood, Orpington BR5","51.383499","0.078068","1st Sep 2021","4","2",NA,"0","1","0","0"
"407","4e+06","detached","Mount Avenue, London W5","51.522665","-0.309374","1st Sep 2021","8","4",NA,"0","0","4","0"
"408","550000","flat","Point Wharf Lane, Ferry Quays, Brentford TW8","51.483104","-0.301598","1st Sep 2021","2","2",NA,"0","1","0","0"
"409","1500000","detached","Dene Road, Northwood, Middlesex HA6","51.613566","-0.435065","1st Sep 2021","5","3",NA,"0","0","3","0"
"410","2750000","flat","Shoreditch High Street, London E1","51.526418","-0.078275","1st Sep 2021","2","0",NA,"1","1","0","0"
"411","895000","terraced","Graveney Road, London SW17","51.429656","-0.169242","1st Sep 2021","5","2",NA,"0","0","2","0"
"412","375000","sale","Hatherley Grove, London W2","51.516361","-0.190025","1st Sep 2021","0","0",NA,"1","0","0","0"
"413","525000","flat","Royal Crest Avenue, Royal Wharf, London E16","51.500852","0.029029","1st Sep 2021","2","2",NA,"0","1","0","0"
"414","650000","end","Montague Road, Hanwell W7","51.507236","-0.33487","1st Sep 2021","4","2",NA,"0","0","2","0"
"415","2100000","terraced","Bromfelde Road, London SW4","51.468331","-0.130893","1st Sep 2021","5","2",NA,"0","0","5","0"
"416","460000","flat","Lurline Gardens, London SW11","51.47573","-0.15301","1st Sep 2021","0","0","496","1","1","0","1"
"417","995000","flat","Nevern Square, Earl's Court, London SW5","51.492404","-0.196376","1st Sep 2021","2","2",NA,"0","1","0","0"
"418","525000","flat","Royal Crest Avenue, Royal Wharf, London E16","51.500852","0.029029","1st Sep 2021","0","2",NA,"0","1","0","1"
"419","685000","flat","Westgate Terrace, London SW10","51.486882","-0.188729","1st Sep 2021","0","0",NA,"1","1","0","1"
"420","715000","end","Hadley Gardens, Southall UB2","51.492537","-0.378481","1st Sep 2021","4","3",NA,"0","0","2","0"
"421","875000","end","Boston Manor Road, Brentford TW8","51.494443","-0.320315","1st Sep 2021","4","2",NA,"0","0","2","0"
"422","525000","flat","Elm Bank Mansions, The Terrace, Barnes, London SW13","51.471605","-0.253452","1st Sep 2021","0","0",NA,"1","1","0","1"
"423","3550000","end","Park View, Parkside, Wimbledon SW19","51.4335957066667","-0.219362153333333","1st Sep 2021","5","5",NA,"0","0","4","0"
"424","850000","flat","Bolingbroke Road, London W14","51.500738","-0.216715","1st Sep 2021","2","0",NA,"1","1","0","0"
"425","4e+05","flat","Alexandra Road, London N10","51.604161","-0.142852","1st Sep 2021","2","0",NA,"1","1","0","0"
"426","1350000","flat","Nassau Road, Barnes, London SW13","51.474765","-0.246434","1st Sep 2021","3","2",NA,"0","1","0","0"
"427","1395000","terraced","Averill Street, London W6","51.484478","-0.21848","1st Sep 2021","4","2",NA,"0","1","0","0"
"428","1350000","terraced","Hurlingham Square, Peterborough Road, London SW6","51.467091","-0.194638","1st Sep 2021","3","3",NA,"0","1","0","0"
"429","6e+05","semi-detached","Mayday Gardens, London SE3","51.467632","0.046114","1st Sep 2021","4","2",NA,"0","0","2","0"
"430","450000","flat","Leighton Road, Kentish Town, London NW5","51.550571","-0.133958","1st Sep 2021","0","0","550","1","1","0","1"
"431","350000","flat","Claremont Road, Forest Gate, London E7","51.549228","0.037741","1st Sep 2021","2","0",NA,"1","1","0","0"
"432","615000","semi-detached","Kings Close, London NW4","51.588683","-0.212024","1st Sep 2021","3","0","952","1","1","0","0"
"433","310000","flat","Attewood Road, Northolt UB5","51.54956","-0.382758","1st Sep 2021","2","0",NA,"1","1","0","0"
"434","4e+05","maisonette","Markhouse Road, Walthamstow, London E17","51.571053","-0.026258","1st Sep 2021","2","0",NA,"1","1","0","0"
"435","450000","flat","Bramah Road, Oval SW9","51.474065","-0.109043","1st Sep 2021","0","0","700","1","1","0","1"
"436","885000","town","Lechmere Road, Willesden NW2","51.547698","-0.230329","1st Sep 2021","3","3","1,211","0","1","0","0"
"437","1250000","terraced","Coldfall Avenue, London N10","51.5969","-0.153336","1st Sep 2021","4","2",NA,"0","0","2","0"
"438","475000","flat","Fairhazel Gardens, South Hampstead NW6","51.542576","-0.181716","1st Sep 2021","0","0","416","1","1","0","1"
"439","1595000","terraced","Bracewell Road, Ladbroke Grove W10","51.520651","-0.22706","1st Sep 2021","4","2",NA,"0","0","2","0"
"440","285000","maisonette","Middle Park Avenue, Eltham SE9","51.448622","0.035779","1st Sep 2021","2","0",NA,"1","1","0","0"
"441","1250000","terraced","Perth Road, London N4","51.568653","-0.1086","1st Sep 2021","3","2",NA,"0","1","0","0"
"442","725000","terraced","Beechfield Road, London N4","51.577701","-0.089062","1st Sep 2021","3","0",NA,"1","1","0","0"
"443","325000","flat","Errol Gardens, New Malden KT3","51.398193","-0.24278","1st Sep 2021","2","0",NA,"1","1","0","0"
"444","265000","flat","Minstrel Gardens, Surbiton KT5","51.399064","-0.292587","1st Sep 2021","0","0",NA,"1","1","0","1"
"445","250000","maisonette","Green Lanes, London N21","51.633945","-0.094513","1st Sep 2021","2","0",NA,"1","1","0","0"
"446","365000","flat","Gilmore Road, Lewisham SE13","51.45949","-0.004807","1st Sep 2021","0","0",NA,"1","1","0","1"
"447","475000","flat","Lovelace Gardens, Surbiton KT6","51.38892","-0.309278","1st Sep 2021","2","0",NA,"1","1","0","0"
"448","3e+05","flat","Gideon Road, London SW11","51.466278","-0.154574","1st Sep 2021","0","0",NA,"1","1","0","1"
"449","180000","property","North Street, Bromley BR1","51.408058","0.015874","1st Sep 2021","0","0",NA,"1","1","0","1"
"450","525000","terraced","Grosvenor Road, Southall UB2","51.5013","-0.377653","1st Sep 2021","3","0",NA,"1","0","3","0"
"451","480000","flat","Moorhen Drive, Edgware NW9","51.576779","-0.242524","1st Sep 2021","2","2",NA,"0","1","0","0"
"452","650000","terraced","Bushey Road, London SW20","51.407444","-0.220392","1st Sep 2021","4","2",NA,"0","0","2","0"
"453","525000","terraced","Spencer Road, Walthamstow, London E17","51.595948","-0.004983","1st Sep 2021","2","0","1,074","0","0","0","0"
"454","7e+05","terraced","Peterborough Road, Leyton E10","51.578927","-0.002452","1st Sep 2021","3","0",NA,"1","0","0","0"
"455","825000","end","Westmount Road, Eltham Park SE9","51.461454","0.058014","1st Sep 2021","4","2",NA,"0","0","2","0"
"456","999950","semi-detached","Tentelow Lane, Norwood Green UB2","51.502052","-0.359537","1st Sep 2021","4","3","1,970","0","1","0","0"
"457","295000","maisonette","Waterside Close, Northolt UB5","51.53405","-0.373229","1st Sep 2021","2","0",NA,"1","1","0","0"
"458","465000","flat","Frogmore, London SW18","51.45905","-0.197069","1st Sep 2021","2","0","6,383","1","1","0","0"
"459","475000","terraced","Princes Avenue, Greenford UB6","51.519705","-0.359918","1st Sep 2021","3","0",NA,"1","0","2","0"
"460","295000","flat","Waltham Road, Southall, Middlesex UB2","51.501247","-0.385208","1st Sep 2021","2","0",NA,"1","1","0","0"
"461","450000","flat","Acton Lane, London W4","51.495267","-0.266378","1st Sep 2021","2","0",NA,"1","1","0","0"
"462","315000","flat","Green Lane, Chessington KT9","51.3559","-0.300656","1st Sep 2021","2","0",NA,"1","0","0","0"
"463","2750000","terraced","Gloucester Road, London SW7","51.499146","-0.183993","1st Sep 2021","3","2",NA,"0","0","2","0"
"464","7e+05","terraced","Jersey Road, Leytonstone E11","51.565212","-0.00183","1st Sep 2021","3","0",NA,"1","1","0","0"
"465","550000","property","Stratton Drive, Barking, Essex IG11","51.543584","0.099761","1st Sep 2021","4","0",NA,"1","1","0","0"
"466","480000","flat","Cambium, 15 Victoria Dr, London SW19","51.447972","-0.219901","1st Sep 2021","0","0","549","1","1","0","1"
"467","750000","terraced","Wellfield Road, London SW16","51.42836","-0.121966","1st Sep 2021","3","0",NA,"1","1","0","0"
"468","2850000","flat","Marshall Street, London W1F","51.513736","-0.138113","1st Sep 2021","3","2","1,755","0","1","0","0"
"469","4e+05","flat","Glasshouse Fields, London E1W","51.510733","-0.046526","1st Sep 2021","2","0",NA,"1","1","0","0"
"470","425000","end","Ennerdale Close, Feltham TW14","51.447266","-0.424511","1st Sep 2021","3","0",NA,"1","1","0","0"
"471","375000","semi-detached","Devonshire Road, Bexleyheath DA6","51.457208","0.13449","1st Sep 2021","2","0",NA,"1","1","0","0"
"472","680000","flat","Arena Tower, 25 Crossharbour Plaza, London E14","51.497976","-0.015302","1st Sep 2021","2","2",NA,"0","1","0","0"
"473","550000","bungalow","The Bramblings, London E4","51.61636","0.00507","1st Sep 2021","3","0",NA,"1","1","0","0"
"474","6e+05","flat","Lady Margaret Road, London N19","51.556971","-0.135478","1st Sep 2021","2","2",NA,"0","1","0","0"
"475","525000","flat","Hungerford Road, London N7","51.551291","-0.123361","1st Sep 2021","3","0",NA,"1","0","2","0"
"476","335000","maisonette","Albion Road, Sutton, Surrey SM2","51.355506","-0.182138","1st Sep 2021","2","0",NA,"1","1","0","0"
"477","145000","flat","Station Road, Sutton, Surrey SM2","51.344111","-0.201873","1st Sep 2021","0","0",NA,"1","1","0","1"
"478","1800000","terraced","Alba Place, London W11","51.517275","-0.205612","1st Sep 2021","4","2",NA,"0","0","2","0"
"479","325000","flat","Kelmscott Court, Aran Drive, Stanmore HA7","51.619397","-0.308252","1st Sep 2021","0","0",NA,"1","1","0","1"
"480","550000","flat","Oxborough House, Eltringham Street, Wandsworth, London SW18","51.462211","-0.184026","1st Sep 2021","2","2",NA,"0","1","0","0"
"481","2450000","flat","Drayton Gardens, Chelsea, London SW10","51.488349","-0.180662","1st Sep 2021","3","3","1,406","0","1","0","0"
"482","425000","semi-detached","Welton Road, London SE18","51.473916","0.089062","1st Sep 2021","3","0",NA,"1","1","0","0"
"483","6e+05","terraced","Westwood Road, Ilford IG3","51.567778","0.10551","1st Sep 2021","4","3",NA,"0","1","0","0"
"484","525000","terraced","Ferrymead Avenue, Greenford UB6","51.5344","-0.368941","1st Sep 2021","3","2",NA,"0","1","0","0"
"485","250000","flat","Autumn Drive, Sutton SM2","51.349123","-0.19678","1st Sep 2021","2","0",NA,"1","0","0","0"
"486","439000","flat","Inglis Way, London NW7","51.6109153492823","-0.213386631578947","1st Sep 2021","0","0","630","1","1","0","1"
"487","221500","maisonette","Albion Road, Sutton, Surrey SM2","51.355506","-0.182138","1st Sep 2021","2","0",NA,"1","1","0","0"
"488","950000","detached","Humber Road, London SE3","51.483697","0.01843","1st Sep 2021","3","2",NA,"0","1","0","0"
"489","375000","property","Derry Court, Streatham High Road SW16","51.424508","-0.13185","1st Sep 2021","0","0","665","1","1","0","1"
"490","725000","flat","Bastwick Street, Clerkenwell, London EC1V","51.525021","-0.097289","1st Sep 2021","2","2","804","0","1","0","0"
"491","465000","flat","Orchard Wharf, Poplar E14","51.511665","0.001089","1st Sep 2021","0","0",NA,"1","1","0","1"
"492","2050000","flat","1 Blackfriars Road, Southbank SE1","51.507727","-0.105072","1st Sep 2021","2","2","1,480","0","1","0","0"
"493","6e+05","end","Roding Lane South, Ilford IG4","51.58085","0.044123","1st Sep 2021","3","0",NA,"1","1","0","0"
"494","750000","semi-detached","Virginia Gardens, Barkingside, Ilford IG6","51.591791","0.086685","1st Sep 2021","5","3",NA,"0","1","0","0"
"495","275000","maisonette","Fawe Park Road, London SW15","51.460675","-0.202807","1st Sep 2021","0","0",NA,"1","1","0","1"
"496","435000","terraced","Finlays Close, Chessington KT9","51.36619","-0.288423","1st Sep 2021","3","0",NA,"1","0","0","0"
"497","475000","end","Moorland Road, Harmondsworth, West Drayton UB7","51.487197","-0.482297","1st Sep 2021","3","0",NA,"1","1","0","0"
"498","450000","flat","Ashton Reach, Surrey Quays SE16","51.491605","-0.036373","1st Sep 2021","0","0","462","1","1","0","1"
"499","260000","maisonette","Whitton Avenue West, Northolt UB5","51.554089","-0.352709","1st Sep 2021","0","0",NA,"1","1","0","1"
"500","475000","flat","Grange Road, London Bridge SE1","51.496121","-0.080443","1st Sep 2021","2","2",NA,"0","1","0","0"
"501","5e+05","flat","Longfellow Way, Bermondsey SE1","51.490123","-0.073838","1st Sep 2021","4","0","852","1","1","0","0"
"502","850000","flat","Creffield Road, London W5","51.511699","-0.286491","1st Sep 2021","3","3","1,477","0","1","0","0"
"503","340000","flat","Wandle House, Brangbourne Road BR1","51.423848","-0.006011","1st Sep 2021","3","0",NA,"1","1","0","0"
"504","305000","maisonette","Hambledon Gardens, London SE25","51.40085","-0.079144","1st Sep 2021","2","0",NA,"1","1","0","0"
"505","389950","flat","Hubbards Close, Uxbridge UB8","51.520637","-0.450488","1st Sep 2021","2","2",NA,"0","1","0","0"
"506","575000","flat","Edgeley Road, London SW4","51.46545","-0.134132","1st Sep 2021","2","0",NA,"1","1","0","0"
"507","575000","flat","Tabard Street, London SE1","51.499645","-0.091303","1st Sep 2021","0","0",NA,"1","1","0","1"
"508","310000","flat","Highwood Close, London SE22","51.44164","-0.065993","1st Sep 2021","0","0",NA,"1","1","0","1"
"509","799950","flat","Oxford Road, London NW6","51.535808","-0.191957","1st Sep 2021","3","2","1,364","0","1","0","0"
"510","475000","flat","Eric Street, London E3","51.521526","-0.03267","1st Sep 2021","2","2",NA,"0","1","0","0"
"511","415000","flat","Rushmead, Ham, Richmond TW10","51.435623","-0.320187","1st Sep 2021","2","0",NA,"1","1","0","0"
"512","395000","flat","River Heights, 90 High Street, Stratford, London E15","51.534011","-0.007434","1st Sep 2021","0","0",NA,"1","1","0","1"
"513","870000","flat","Eastlight Apartments, London E1","51.51007","-0.068388","1st Sep 2021","2","0",NA,"1","1","0","0"
"514","750000","flat","Watermans Quay, London SW6","51.469238","-0.18408","1st Sep 2021","2","2",NA,"0","0","0","0"
"515","350000","flat","Cornwallis Road, London E17","51.584497","-0.039493","1st Sep 2021","0","0",NA,"0","0","0","1"
"516","290000","flat","26 Ramsey Walk, London N1","51.54544","-0.08936","1st Sep 2021","2","0",NA,"1","1","0","0"
"517","365000","flat","Abbey Road, Barking IG11","51.532294","0.075571","1st Sep 2021","2","0",NA,"0","0","0","0"
"518","310000","maisonette","Lawson Road, Enfield EN3","51.660686","-0.048889","1st Sep 2021","3","0",NA,"1","1","0","0"
"519","429950","end","Westmount Road, London SE9","51.466053","0.05532","1st Sep 2021","3","0",NA,"1","1","0","0"
"520","495000","flat","Crockerton Road, London SW17","51.438438","-0.16551","1st Sep 2021","2","0",NA,"0","0","0","0"
"521","455000","flat","Adenmore Road, London SE6","51.447066","-0.025099","1st Sep 2021","3","2",NA,"0","1","0","0"
"522","660000","flat","Church Street Estate, London NW8","51.522791","-0.171224","1st Sep 2021","4","0",NA,"1","1","0","0"
"523","650000","flat","Cock Lane, London EC1A","51.51733","-0.102664","1st Sep 2021","0","0",NA,"1","1","0","1"
"524","450000","flat","Albert Road, Leyton, London E10","51.564326","-0.004323","1st Sep 2021","2","0",NA,"1","1","0","0"
"525","2250000","flat","Charlesworth House, 48 Stanhope Gardens, London SW7","51.493763","-0.181311","1st Sep 2021","2","2",NA,"0","1","0","0"
"526","4e+05","flat","Golderton, Prince Of Wales Close, Hendon NW4","51.590232","-0.224639","1st Sep 2021","2","2",NA,"0","0","0","0"
"527","375000","flat","Lancaster Road, London SE25","51.40392","-0.075021","1st Sep 2021","2","0",NA,"1","1","0","0"
"528","885000","detached","Sydney Road, London N8","51.588426","-0.106149","1st Sep 2021","4","2",NA,"0","1","0","0"
"529","725000","terraced","Scrutton Close, London SW12","51.447545","-0.134045","1st Sep 2021","3","0",NA,"1","0","0","0"
"530","439999","terraced","Hoe Lane, Enfield EN1","51.665145","-0.059314","1st Sep 2021","3","0",NA,"1","0","2","0"
"531","725000","flat","Penthouse Apartment, Wickliffe Avenue, Finchley N3","51.595745","-0.207822","1st Sep 2021","2","2","882","0","1","0","0"
"532","575000","flat","Penthouse Apartment, Wickliffe Avenue, Finchley N3","51.595779","-0.208114","1st Sep 2021","2","2","688","0","1","0","0"
"533","675000","flat","Penthouse Apartment, Wickliffe Avenue, Finchley N3","51.595798","-0.208221","1st Sep 2021","2","2","774","0","1","0","0"
"534","625000","flat","Penthouse Apartment, Wickliffe Avenue, Finchley N3","51.595779","-0.208194","1st Sep 2021","2","2","764","0","1","0","0"
"535","299950","flat","Greenford Road, Greenford UB6","51.528641","-0.351422","1st Sep 2021","3","0",NA,"1","1","0","0"
"536","225000","flat","Nicola Close, Harrow HA3","51.5997","-0.342381","1st Sep 2021","2","0",NA,"1","1","0","0"
"537","360000","flat","Crofts Street, Wapping E1","51.509215","-0.069332","1st Sep 2021","0","0",NA,"1","1","0","1"
"538","450000","flat","North Pole Road, North Kensington W10","51.520253","-0.225443","1st Sep 2021","0","0",NA,"1","1","0","1"
"539","310000","flat","7 Washington Road, London E18","51.594632","0.016775","1st Sep 2021","0","0",NA,"1","1","0","1"
"540","450000","property","Hawthorn Court, West Hall Road, Richmond, Surrey TW9","51.475133","-0.277926","1st Sep 2021","2","0",NA,"1","1","0","0"
"541","525000","terraced","Fullerton Road, Addiscombe, Croydon CR0","51.383121","-0.081868","1st Sep 2021","5","2",NA,"0","0","2","0"
"542","450000","terraced","Dairsie Road, London SE9","51.462337","0.059853","1st Sep 2021","3","0",NA,"1","0","2","0"
"543","2195000","flat","Penthouse Apartment, Steeles Road, Belsize Park NW3","51.544956","-0.160517","1st Sep 2021","2","2","1,565","0","0","2","0"
"544","179000","flat","Leigham Court Road, London SW16","51.43338","-0.118497","1st Sep 2021","0","0",NA,"1","0","0","1"
"545","350000","flat","Doddington Grove, London SE17","51.485968","-0.103558","1st Sep 2021","0","0",NA,"1","1","0","1"
"546","1025000","flat","Harwood Road, London SW6","51.4781","-0.1935","1st Sep 2021","2","2","980","0","1","0","0"
"547","1250000","detached","Hazlitt Road, London W14","51.497661","-0.21314","1st Sep 2021","2","2",NA,"0","1","0","0"
"548","8e+05","maisonette","Benwell Road, Holloway, Islington, London N7","51.552187","-0.109053","1st Sep 2021","2","0",NA,"1","1","0","0"
"549","299995","sale","3 Carlton Drive, London SW15","51.457316","-0.216975","1st Sep 2021","0","0",NA,"1","1","0","0"
"550","650000","flat","Bluewater House, Smugglers Way, London SW18","51.463147","-0.190259","1st Sep 2021","2","2",NA,"0","1","0","0"
"551","475000","terraced","Canning Town, London E16","51.522799","0.010976","1st Sep 2021","3","0",NA,"1","0","2","0"
"552","369950","end","Marshall Drive, Hayes UB4","51.522382","-0.416009","1st Sep 2021","2","0",NA,"1","0","0","0"
"553","475000","terraced","Braemar Avenue, South Croydon, London CR2","51.346638","-0.100184","1st Sep 2021","3","0",NA,"1","0","0","0"
"554","143625","flat","Kings Avenue, London SW4","51.449455","-0.130873","1st Sep 2021","2","2","775","0","0","0","0"
"555","93750","flat","Kiver Road, London N19","51.563068","-0.124532","1st Sep 2021","0","0",NA,"1","1","0","1"
"556","299950","flat","Cranleigh Gardens, Southall UB1","51.5205","-0.378944","1st Sep 2021","3","0",NA,"1","0","0","0"
"557","4e+05","flat","Runnymede, Colliers Wood, London SW19","51.413342","-0.179287","1st Sep 2021","2","0","450","1","0","2","0"
"558","215000","flat","Lamport Close, Woolwich, London SE18","51.491284","0.056556","1st Sep 2021","0","0",NA,"1","1","0","1"
"559","450000","flat","West Carriage House, Woolwich Riverside, London SE18","51.492763","0.071667","1st Sep 2021","2","2",NA,"0","1","0","0"
"560","350000","terraced","Robinson Road, Dagenham RM10","51.552047","0.149622","1st Sep 2021","3","0",NA,"1","1","0","0"
"561","1150000","property","Hillcrest Road, London W3","51.506541","-0.279034","1st Sep 2021","4","0",NA,"1","0","2","0"
"562","1600000","flat","The Hall, 23A Grove End Road, St John's Wood NW8","51.530819","-0.177095","1st Sep 2021","3","2",NA,"0","0","2","0"
"563","750000","terraced","Devon Avenue, Twickenham TW2","51.447486","-0.353945","1st Sep 2021","4","2",NA,"0","0","2","0"
"564","475000","flat","Park Road, Bromley BR1","51.407901","0.021654","1st Sep 2021","2","0","1,291","1","0","0","0"
"565","475000","terraced","Abbotsbury Road, Morden SM4","51.399393","-0.193657","1st Sep 2021","2","0",NA,"1","1","0","0"
"566","330000","flat","Grange Park Road, Leyton, London E10","51.565087","-0.014737","1st Sep 2021","0","0",NA,"1","1","0","1"
"567","229950","flat","Gade Close, Hayes UB3","51.51015","-0.407196","1st Sep 2021","0","0",NA,"1","0","0","1"
"568","375000","flat","Westmere Drive, London NW7","51.625523","-0.257912","1st Sep 2021","2","0",NA,"1","0","2","0"
"569","625000","flat","Cavendish Road, London SW12","51.450469","-0.142211","1st Sep 2021","2","0","773","1","1","0","0"
"570","585000","property","Elia Street, Islington N1","51.531661","-0.101603","1st Sep 2021","2","0","645","1","1","0","0"
"571","1150000","flat","Belsize Park Gardens, London NW3","51.547996","-0.167734","1st Sep 2021","3","2",NA,"0","0","2","0"
"572","1045000","semi-detached","Heath Gardens, Twickenham TW1","51.44484","-0.337321","1st Sep 2021","3","2",NA,"0","0","2","0"
"573","275000","flat","Chisley Road, Tottenham, London N15","51.577952","-0.07942","1st Sep 2021","3","0",NA,"1","1","0","0"
"574","850000","semi-detached","Swakeleys Road, Ickenham, Uxbridge UB10","51.564845","-0.456455","1st Sep 2021","4","0",NA,"1","1","0","0"
"575","1500000","end","Bassein Park Road, London W12","51.501503","-0.246249","1st Sep 2021","3","2",NA,"0","0","2","0"
"576","135000","flat","Quilters Place, Eastnor Road, Greenwich, Eltham SE9","51.437852","0.074565","1st Sep 2021","2","0",NA,"1","0","0","0"
"577","650000","flat","Courtlands, Sheen Road, Richmond TW10","51.461093","-0.287606","1st Sep 2021","2","0",NA,"1","1","0","0"
"578","340000","flat","Calum Court, Central Purley, Purley CR8","51.338256","-0.115426","1st Sep 2021","0","0",NA,"1","1","0","1"
"579","375000","flat","Firs Close, Forest Hill, London, . SE23","51.444752","-0.044362","1st Sep 2021","2","0",NA,"1","1","0","0"
"580","269999","flat","Butchers Road, London E16","51.511655","0.019983","1st Sep 2021","2","0",NA,"1","1","0","0"
"581","6e+05","flat","Battersea Rise, Battersea, London SW11","51.460833","-0.163474","1st Sep 2021","2","2",NA,"0","1","0","0"
"582","625000","semi-detached","Cliff End, Purley, Surrey, . CR8","51.335018","-0.11091","1st Sep 2021","3","0",NA,"1","1","0","0"
"583","5e+05","semi-detached","Manor Avenue, Hounslow TW4","51.470855","-0.392574","1st Sep 2021","3","0",NA,"1","1","0","0"
"584","360000","maisonette","Sulby House, Turnham Road, London, .. SE4","51.459019","-0.041391","1st Sep 2021","2","0",NA,"1","1","0","0"
"585","8e+05","flat","Bramshaw Road, Victoria Park, London E9","51.54332","-0.0421","1st Sep 2021","3","2",NA,"0","1","0","0"
"586","1e+06","property","Florence Road, New Cross, London SE14","51.474394","-0.02962","1st Sep 2021","4","0",NA,"1","1","0","0"
"587","220000","flat","Myers Lane, New Cross, London SE14","51.482589","-0.04806","1st Sep 2021","0","0",NA,"1","1","0","1"
"588","280000","flat","Addiscombe Grove, Croydon CR0","51.374097","-0.090738","1st Sep 2021","2","0",NA,"1","1","0","0"
"589","475000","flat","6 St. Philips Road, Surbiton KT6","51.393138","-0.307469","1st Sep 2021","2","0",NA,"1","1","0","0"
"590","525000","flat","Prince Albert Road, London NW8","51.533168","-0.16688","1st Sep 2021","0","0",NA,"1","0","0","1"
"591","550000","flat","Lillie Road, Fulham, London SW6","51.48531","-0.202159","1st Sep 2021","0","0",NA,"1","1","0","1"
"592","1450000","semi-detached","Vivienne Close, Twickenham TW1","51.453155","-0.309245","1st Sep 2021","4","2",NA,"0","0","3","0"
"593","460000","flat","Station Approach, Sydenham, London, England SE26","51.424498","-0.032353","1st Sep 2021","2","0",NA,"1","1","0","0"
"594","5e+05","end","Highland Road, Bromley, London, England BR1","51.410171","0.006936","1st Sep 2021","3","0",NA,"1","1","0","0"
"595","425000","flat","Sutherland Road, London E17","51.590656","-0.036387","1st Sep 2021","2","2",NA,"0","1","0","0"
"596","1e+06","flat","Sutherland Avenue, Maida Vale W9","51.526502","-0.184527","1st Sep 2021","2","2",NA,"0","1","0","0"
"597","875000","flat","Saffron Hill, Farringdon, London EC1N","51.519882","-0.106972","1st Sep 2021","2","2",NA,"0","1","0","0"
"598","2e+05","flat","High Street, Orpington BR6","51.381004","0.104069","1st Sep 2021","0","0",NA,"1","1","0","1"
"599","225950","flat","Park Lodge Avenue, West Drayton UB7","51.506093","-0.462338","1st Sep 2021","0","0",NA,"1","0","0","1"
"600","375000","flat","Fife Road, London E16","51.515732","0.018261","1st Sep 2021","3","0",NA,"1","1","0","0"
"601","720000","flat","Point Pleasant, London SW18","51.462666","-0.200442","1st Sep 2021","2","2",NA,"0","1","0","0"
"602","720000","flat","Acton Walk, London N20","51.633449","-0.176184","1st Sep 2021","3","2","1,168","0","1","0","0"
"603","975000","flat","Rufford Street, London N1","51.539846","-0.122177","1st Sep 2021","3","3",NA,"0","0","2","0"
"604","499950","flat","Harford House, London W11","51.52066","-0.202351","1st Sep 2021","2","0",NA,"1","1","0","0"
"605","290000","flat","Friars Mead, Isle Of Dogs, London E14","51.493775","-0.010649","1st Sep 2021","0","0",NA,"1","1","0","1"
"606","1100000","flat","Northey Street, Limehouse, London E14","51.509719","-0.034163","1st Sep 2021","3","2",NA,"0","1","0","0"
"607","1750000","flat","Orion Point, Isle Of Dogs, London E14","51.491584","-0.026257","1st Sep 2021","4","3",NA,"0","0","2","0"
"608","4e+05","maisonette","Hastings Road, Canning Town, London E16","51.515392","0.020398","1st Sep 2021","2","0",NA,"1","1","0","0"
"609","2600000","semi-detached","Howards Lane, London SW15","51.460643","-0.230032","1st Sep 2021","5","4",NA,"0","0","2","0"
"610","2600000","detached","Woodborough Road, London SW15","51.463771","-0.234705","1st Sep 2021","5","2",NA,"0","0","2","0"
"611","1575000","flat","Beech Hill, Hadley Wood, Hertfordshire EN4","51.667099","-0.161733","1st Sep 2021","2","2","1,528","0","1","0","0"
"612","7e+05","detached","Barnfield Avenue, Shirley, Croydon CR0","51.37481","-0.05609","1st Sep 2021","3","0",NA,"0","0","0","0"
"613","750000","semi-detached","Oaklands Avenue, Isleworth TW7","51.486301","-0.334975","1st Sep 2021","4","0",NA,"1","1","0","0"
"614","6e+05","flat","Yeoman Street, London SE8","51.490619","-0.039277","1st Sep 2021","3","2",NA,"0","1","0","0"
"615","575000","flat","Landmark Pinnacle, Canary Wharf E14","51.502738","-0.025424","1st Sep 2021","0","0",NA,"1","1","0","1"
"616","240000","terraced","Kingfisher Close, St Pauls Cray, Kent BR5","51.396048","0.123534","1st Sep 2021","0","0",NA,"1","1","0","1"
"617","750000","terraced","Lynmouth Road, Walthamstow, London E17","51.578325","-0.037455","1st Sep 2021","5","3",NA,"0","0","2","0"
"618","1199950","semi-detached","Greenhill Road, Harlesden, London NW10","51.538256","-0.255213","1st Sep 2021","4","3",NA,"0","0","2","0"
"619","157500","flat","Somerset Hall, Creighton Road, Haringey, Haringey N17","51.605963","-0.074142","1st Sep 2021","0","0","441","1","0","0","1"
"620","450000","flat","Commercial Road, London E14","51.512502","-0.037844","1st Sep 2021","0","0",NA,"1","1","0","1"
"621","495000","sale","Petty France, Westminster, London SW1H","51.499427","-0.135767","1st Sep 2021","0","0",NA,"1","1","0","0"
"622","675000","semi-detached","Simmons Way, Whetstone, London N20","51.63003","-0.160839","1st Sep 2021","4","2",NA,"0","0","2","0"
"623","460000","flat","Falconry Court, 7 Fairfield South, Kingston Upon Thames KT1","51.407526","-0.299411","1st Sep 2021","3","0",NA,"1","1","0","0"
"624","450000","terraced","Sheringham Avenue, Romford RM7","51.57221","0.169278","1st Sep 2021","4","3",NA,"0","0","2","0"
"625","650000","flat","Shepherds Hill, Highgate, London N6","51.57942","-0.132877","1st Sep 2021","0","0",NA,"1","0","2","1"
"626","765000","terraced","Thurleston Avenue, London SM4","51.397115","-0.217276","1st Sep 2021","5","4",NA,"0","0","2","0"
"627","675000","terraced","Westmount Close, Worcester Park KT4","51.383308","-0.231982","1st Sep 2021","4","2",NA,"0","0","2","0"
"628","92500","flat","Blackhorse Road, Walthamstow E17","51.586884","-0.041873","1st Sep 2021","0","0","545","1","0","0","1"
"629","325000","flat","Errol Gardens, New Malden KT3","51.398193","-0.24278","1st Sep 2021","2","0",NA,"1","1","0","0"
"630","875000","detached","Sovereign Close, Ruislip HA4","51.572798","-0.424962","1st Sep 2021","4","0",NA,"1","0","2","0"
"631","325000","flat","Montagu Gardens, Wallington SM6","51.36554","-0.142002","1st Sep 2021","2","2",NA,"0","1","0","0"
"632","375000","sale","Courtfield House, Baldwins Gardens, London EC1N","51.519858","-0.111776","1st Sep 2021","0","0",NA,"1","0","0","0"
"633","675000","flat","Brunel House, 148 Christchurch Way, Greenwich, London SE10","51.490068","0.005084","1st Sep 2021","3","2",NA,"0","1","0","0"
"634","425000","flat","Beacon Point, 12 Dowells Street, Greenwich, London SE10","51.482835","-0.016981","1st Sep 2021","0","0",NA,"1","1","0","1"
"635","475000","flat","Old Road, London SE13","51.457914","0.004334","1st Sep 2021","2","0","597","1","1","0","0"
"636","475000","terraced","Brooklands Gardens, Hornchurch RM11","51.572935","0.21276","1st Sep 2021","4","0",NA,"0","1","0","0"
"637","370000","flat","Blackhorse Road, Walthamstow E17","51.586884","-0.041873","1st Sep 2021","0","0","545","1","0","0","1"
"638","350000","flat","Champion Hill, London SE5","51.465799","-0.088194","1st Sep 2021","0","0",NA,"1","1","0","1"
"639","325000","flat","Dunstans Road, London SE22","51.453077","-0.06371","1st Sep 2021","0","0",NA,"1","1","0","1"
"640","795000","flat","Portinscale Road, London SW15","51.455163","-0.207692","1st Sep 2021","2","2",NA,"0","1","0","0"
"641","90000","flat","Blackhorse Road, Walthamstow E17","51.586884","-0.041873","1st Sep 2021","0","0","545","1","0","0","1"
"642","389000","flat","Church Road, London SE19","51.417407","-0.081197","1st Sep 2021","3","2",NA,"0","1","0","0"
"643","140000","flat","Furmage Street, London SW18","51.449838","-0.190026","1st Sep 2021","0","0",NA,"1","1","0","1"
"644","675000","flat","Leghorn Road, Willesden Junction NW10","51.535327","-0.241052","1st Sep 2021","2","0","1,011","1","1","0","0"
"645","535000","flat","Mapleton Road, London SW18","51.453002","-0.192968","1st Sep 2021","2","2","766","0","1","0","0"
"646","572500","flat","Woodberry Down, London N4","51.5712","-0.090933","1st Sep 2021","0","0",NA,"1","1","0","1"
"647","350000","flat","Furmage Street, London SW18","51.449838","-0.190026","1st Sep 2021","0","0",NA,"1","1","0","1"
"648","642000","maisonette","Parkhurst Road, London N7","51.556267","-0.121784","1st Sep 2021","3","0",NA,"1","1","0","0"
"649","360000","flat","Blackhorse Road, Walthamstow E17","51.586884","-0.041873","1st Sep 2021","0","0","545","1","0","0","1"
"650","389950","flat","Hubbards Close, Uxbridge UB8","51.520637","-0.450488","1st Sep 2021","2","2",NA,"0","1","0","0"
"651","680000","flat","Grove Vale, East Dulwich, London SE22","51.461466","-0.080055","1st Sep 2021","2","0",NA,"1","1","0","0"
"652","750000","terraced","Cranston Road, Forest Hill SE23","51.437868","-0.041936","1st Sep 2021","4","0",NA,"1","0","2","0"
"653","750000","terraced","Cranston Road, Forest Hill SE23","51.437868","-0.041936","1st Sep 2021","4","0",NA,"1","0","2","0"
"654","550000","semi-detached","Woodford, Green, Essex IG8","51.609351","0.04081","1st Sep 2021","3","0",NA,"1","1","0","0"
"655","350000","flat","Churchfields, South Woodford, London E18","51.598727","0.028537","1st Sep 2021","2","0",NA,"1","1","0","0"
"656","730000","maisonette","St MaryS Road, Nunhead SE15","51.469271","-0.053796","1st Sep 2021","3","0","1,016","1","1","0","0"
"657","620000","flat","Saffron Central Square, Croydon CR0","51.379658","-0.098326","1st Sep 2021","3","2",NA,"0","1","0","0"
"658","6e+05","semi-detached","St. Leonards Road, Croydon CR0","51.369961","-0.111297","1st Sep 2021","4","2",NA,"0","1","0","0"
"659","290000","flat","Croydon Road, London SE20","51.409332","-0.057478","1st Sep 2021","2","0",NA,"1","1","0","0"
"660","4840000","flat","Bondway, London SW8","51.483481","-0.125103","1st Sep 2021","3","3",NA,"0","1","0","0"
"661","6500000","flat","Knightsbridge, London SW1X","51.502034","-0.16153","1st Sep 2021","0","0",NA,"1","1","0","1"
"662","3545000","flat","Bondway, London SW8","51.483481","-0.125103","1st Sep 2021","3","3",NA,"0","1","0","0"
"663","3320000","flat","Bondway, London SW8","51.483481","-0.125103","1st Sep 2021","3","3",NA,"0","1","0","0"
"664","4280000","flat","Bondway, London SW8","51.483481","-0.125103","1st Sep 2021","3","3",NA,"0","1","0","0"
"665","330000","flat","Keele House, Academy Way, Dagenham, Essex RM8","51.549611","0.110095","1st Sep 2021","3","0",NA,"1","1","0","0"
"666","725000","terraced","Haydons Road, Wimbledon, London SW19","51.41704","-0.1875","1st Sep 2021","3","0",NA,"0","0","2","0"
"667","525000","flat","Haydn Avenue, Purley CR8","51.324688","-0.116818","1st Sep 2021","3","0",NA,"1","1","0","0"
"668","1100000","flat","Discovery Dock Apartments East, 3 South Quay Square, London E14","51.501291","-0.018141","1st Sep 2021","3","3",NA,"0","1","0","0"
"669","750000","terraced","Belgrave Road, Walthamstow, London E17","51.577548","-0.019556","1st Sep 2021","5","2",NA,"0","1","0","0"
"670","795000","property","Lawn Avenue, West Drayton UB7","51.50703","-0.481178","1st Sep 2021","4","2",NA,"0","0","3","0"
"671","990000","property","Summerlands Avenue, Acton W3","51.511409","-0.269411","1st Sep 2021","4","2",NA,"0","0","2","0"
"672","510000","bungalow","Pasley Close, London SE17","51.486399","-0.100245","1st Sep 2021","3","0",NA,"0","1","0","0"
"673","4e+05","maisonette","Moody Street, Mile End, London E1","51.526166","-0.04347","1st Sep 2021","3","0",NA,"1","1","0","0"
"674","390000","terraced","Barking, Essex, England IG11","51.531667","0.093652","1st Sep 2021","3","0",NA,"1","1","0","0"
"675","475000","maisonette","Lytton Grove, London SW15","51.45532","-0.215295","1st Sep 2021","3","0",NA,"1","1","0","0"
"676","5e+05","flat","Digby Street, London E2","51.527328","-0.049728","1st Sep 2021","2","0",NA,"1","1","0","0"
"677","1250000","detached","Ickenham, Uxbridge UB10","51.562189","-0.467328","1st Sep 2021","5","2",NA,"0","0","0","0"
"678","475000","flat","Gloucester Road, New Barnet EN5","51.647272","-0.183052","1st Sep 2021","2","0",NA,"1","1","0","0"
"679","439000","flat","Hammersmith Road, London W6","51.493743","-0.218652","1st Sep 2021","0","0",NA,"1","1","0","1"
"680","1500000","terraced","Tennyson Road, Queen's Park NW6","51.538401","-0.202258","1st Sep 2021","5","2",NA,"0","1","0","0"
"681","625000","semi-detached","Leysdown Road, Mottingham, London SE9","51.435298","0.047325","1st Sep 2021","3","0",NA,"1","1","0","0"
"682","5850000","terraced","Ansdell Terrace, London W8","51.499861","-0.188935","1st Sep 2021","4","3",NA,"0","0","3","0"
"683","395000","flat","Seymour Court, Winchmore Hill N21","51.639919","-0.11117","1st Sep 2021","2","0","746","1","1","0","0"
"684","750000","flat","Coster Avenue, London N4","51.5662199819495","-0.0965203032490975","1st Sep 2021","2","2",NA,"0","1","0","0"
"685","675000","flat","Netherhall Gardens, London NW3","51.550101","-0.178911","1st Sep 2021","2","0",NA,"1","1","0","0"
"686","3950000","detached","Park Avenue, Farnborough, Orpington BR6","51.370441","0.05774","1st Sep 2021","5","4",NA,"0","0","6","0"
"687","145000","flat","Streatham Hill, London SW2","51.44293","-0.12425","1st Sep 2021","0","0",NA,"0","1","0","1"
"688","725000","terraced","Stanley Road, London N11","51.612308","-0.127791","1st Sep 2021","4","0",NA,"1","0","2","0"
"689","440000","flat","Haydn Avenue, Purley CR8","51.324688","-0.116818","1st Sep 2021","2","0",NA,"1","1","0","0"
"690","210000","sale","Westgate House, Hanger Lane W5","51.53104","-0.295601","1st Sep 2021","0","0",NA,"1","1","0","0"
"691","250000","flat","Saxon House, Little Brights Road, Belvedere DA17","51.496166","0.155444","1st Sep 2021","2","0",NA,"1","1","0","0"
"692","1500000","flat","Swan Yard, Islington N1","51.545413","-0.103896","1st Sep 2021","3","2","1,850","0","0","2","0"
"693","8e+05","terraced","Sydney Road, London SW20","51.408222","-0.219764","1st Sep 2021","2","0",NA,"1","0","2","0"
"694","375000","flat","187 East India Dock Road, London E14","51.511399","-0.012902","1st Sep 2021","2","2",NA,"0","1","0","0"
"695","375000","flat","Davenport Road, London SE6","51.449696","-0.009844","1st Sep 2021","2","0",NA,"1","1","0","0"
"696","875000","flat","Kenyon Mansions, Queens Club Gardens, West Kensington, London W14","51.485909","-0.210796","1st Sep 2021","3","0",NA,"1","1","0","0"
"697","5e+05","flat","Hargwyne Street, London SW9","51.466147","-0.12197","1st Sep 2021","0","0",NA,"1","1","0","1"
"698","1150000","terraced","St. Ann's Park Road, London SW18","51.452147","-0.184964","1st Sep 2021","3","2",NA,"0","1","0","0"
"699","410000","terraced","Redwood Estate, Heston, Hounslow TW5","51.485999","-0.404696","1st Sep 2021","3","0",NA,"1","1","0","0"
"700","229995","flat","Wey House, Northolt, Middlesex UB5","51.530307","-0.377602","1st Sep 2021","0","0",NA,"1","1","0","1"
"701","490000","sale","Landmark Pinnacle, 24 Marsh Wall E14","51.501958","-0.024724","1st Sep 2021","0","0",NA,"1","1","0","0"
"702","335000","flat","Argyle Road, London N17","51.600926","-0.063305","1st Sep 2021","0","0",NA,"1","1","0","1"
"703","450000","end","Stanhope Gardens, Dagenham, Essex RM8","51.557122","0.143149","1st Sep 2021","4","0",NA,"0","1","0","0"
"704","5e+05","end","Kenya Road, London SE7","51.475432","0.037189","1st Sep 2021","3","2",NA,"0","1","0","0"
"705","570000","flat","Caversham Road, London NW9","51.594952","-0.239968","1st Sep 2021","2","2",NA,"0","0","0","0"
"706","325000","flat","72-78, Conington Road, Lewisham SE13","51.467732","-0.013842","1st Sep 2021","0","0","578","1","1","0","1"
"707","4995000","flat","Ennismore Gardens, London SW7","51.500217","-0.171314","1st Sep 2021","5","3",NA,"0","0","2","0"
"708","750000","detached","Imperial Drive, North Harrow HA2","51.578839","-0.36707","1st Sep 2021","3","0",NA,"1","0","3","0"
"709","450000","flat","Felbridge House, East Dulwich Estate, London SE22","51.462477","-0.080847","1st Sep 2021","3","0",NA,"1","1","0","0"
"710","1200000","detached","Cumbrae Gardens, Long Ditton, Surbiton KT6","51.380352","-0.312117","1st Sep 2021","4","2",NA,"0","0","4","0"
"711","875000","terraced","Benhill Road, Camberwell SE5","51.475966","-0.086862","1st Sep 2021","0","0",NA,"1","0","3","1"
"712","999000","flat","South Quay Plaza, Canary Wharf E14","51.500988","-0.017303","1st Sep 2021","2","2",NA,"0","1","0","0"
"713","152000","flat","Waterfall Cottages, London SW19","51.422664","-0.17393","1st Sep 2021","0","0",NA,"1","1","0","1"
"714","460000","cottage","Palace Road, Bromley BR1","51.409889","0.020743","1st Sep 2021","2","0",NA,"1","1","0","0"
"715","350000","flat","Hazelwood Close, Harrow HA2","51.590092","-0.361715","1st Sep 2021","2","0",NA,"1","1","0","0"
"716","1299999","end","Archway Road, Highgate, Highgate N6","51.572355","-0.139529","1st Sep 2021","3","2",NA,"0","1","0","0"
"717","495000","terraced","Church Road, Southall UB2","51.5004","-0.377685","1st Sep 2021","4","2",NA,"0","1","0","0"
"718","4e+05","flat","Brisbane Road, London E10","51.559766","-0.011616","1st Sep 2021","2","2",NA,"0","1","0","0"
"719","575000","semi-detached","Balmoral Road, Hornchurch RM12","51.55507","0.215884","1st Sep 2021","3","0",NA,"1","0","2","0"
"720","1200000","semi-detached","Heddon Court Avenue, Cockfosters EN4","51.647775","-0.150176","1st Sep 2021","4","2",NA,"0","0","3","0"
"721","625000","flat","Tessa Apartments, East Dulwich Grove, East Dulwich, London SE22","51.457983","-0.081511","1st Sep 2021","2","2",NA,"0","1","0","0"
"722","545000","flat","Dowding Drive, London SE9","51.455464","0.032759","1st Sep 2021","2","2",NA,"0","1","0","0"
"723","2700000","flat","Radnor Terrace, London W14","51.495341","-0.20607","1st Sep 2021","2","3",NA,"0","1","0","0"
"724","1e+06","semi-detached","Vera Avenue, London N21","51.642799","-0.100882","1st Sep 2021","6","2","2,534","0","0","2","0"
"725","417000","flat","Ivy House, Verdo, Kew Bridge, Brentford TW8","51.490687","-0.286911","1st Sep 2021","0","0",NA,"1","1","0","1"
"726","6e+05","terraced","Pegwell Street, Plumstead, London SE18","51.477596","0.087344","1st Sep 2021","4","2",NA,"0","0","2","0"
"727","995000","flat","Water Gardens Square, London SE16","51.498319","-0.045823","1st Sep 2021","3","4",NA,"0","1","0","0"
"728","425000","flat","Hull Close, London SE16","51.502275","-0.042967","1st Sep 2021","2","0",NA,"1","1","0","0"
"729","675000","flat","Water Gardens Square, London SE16","51.498943","-0.045954","1st Sep 2021","2","2",NA,"0","1","0","0"
"730","550000","flat","William Square, London SE16","51.506829","-0.037411","1st Sep 2021","2","2",NA,"0","1","0","0"
"731","560000","flat","Pell Street, London SE8","51.491639","-0.038593","1st Sep 2021","2","2",NA,"0","1","0","0"
"732","435000","flat","Great Dover Street, London SE1","51.498897","-0.090919","1st Sep 2021","2","0",NA,"1","1","0","0"
"733","1100000","flat","Rushworth Street, London SE1","51.501713","-0.102472","1st Sep 2021","2","2",NA,"0","1","0","0"
"734","220000","flat","Greenslade Road, Barking, Essex IG11","51.538042","0.088695","1st Sep 2021","0","0",NA,"1","1","0","1"
"735","460000","terraced","Chester Road, Ilford, Essex IG3","51.568388","0.102539","1st Sep 2021","3","0",NA,"1","1","0","0"
"736","435000","flat","Southwell Road, London SE5","51.466499","-0.098135","1st Sep 2021","2","0",NA,"1","0","2","0"
"737","1099000","flat","Ranelagh Gardens, London SW6","51.467332","-0.206779","1st Sep 2021","3","2","1,195","0","1","0","0"
"738","145500","flat","Greenslade Road, Barking, Essex IG11","51.538042","0.088695","1st Sep 2021","0","0",NA,"1","1","0","1"
"739","285000","flat","1A Pollard Road, Morden SM4","51.393098","-0.17592","1st Sep 2021","2","2","604","0","1","0","0"
"740","425000","terraced","Polperro Close, Orpington BR6","51.383201","0.092428","1st Sep 2021","3","0",NA,"0","0","0","0"
"741","450000","flat","Sutherland Avenue, London W9","51.5233","-0.19414","1st Sep 2021","2","0",NA,"1","1","0","0"
"742","280000","sale","Metro Central Heights, 119 Newington Causeway, Elephant And Castle, London SE1","51.495925","-0.099646","1st Sep 2021","0","11","317","0","1","0","0"
"743","2190000","terraced","Moresby Road, London E5","51.566761","-0.058235","1st Sep 2021","8","3","4,090","0","0","3","0"
"744","720000","flat","One West Point, North Acton W3","51.522766","-0.258977","1st Sep 2021","2","2",NA,"0","1","0","0"
"745","330000","flat","Idmiston Road, Worcester Park KT4","51.38463","-0.250461","1st Sep 2021","2","0",NA,"1","1","0","0"
"746","699950","flat","Green Apartments, Chiswick High Road, London W4","51.493011","-0.263971","1st Sep 2021","3","0",NA,"1","1","0","0"
"747","245000","flat","Roosevelt Way, Dagenham RM10","51.540951","0.176034","1st Sep 2021","2","0",NA,"1","1","0","0"
"748","550000","semi-detached","The Bramblings, London E4","51.61663","0.005921","1st Sep 2021","3","0",NA,"1","0","2","0"
"749","395000","flat","East Dulwich Road, London SE22","51.4617","-0.075303","1st Sep 2021","0","0",NA,"1","0","0","1"
"750","325000","maisonette","Bluebell Close, Wallington SM6","51.38212","-0.153708","1st Sep 2021","2","0",NA,"1","1","0","0"
"751","410000","flat","Wightman Road, London N8","51.586186","-0.108251","1st Sep 2021","2","0",NA,"1","1","0","0"
"752","1200000","flat","Asquith House, West End Gate, Marylebone W2","51.520752","-0.171963","1st Sep 2021","2","2",NA,"0","1","0","0"
"753","8e+05","penthouse","High Road, North Finchley, London N12","51.613499","-0.175619","1st Sep 2021","2","2",NA,"0","1","0","0"
"754","209950","flat","Bilsby Lodge, Chalklands, Wembley HA9","51.562753","-0.267462","1st Sep 2021","3","0",NA,"1","1","0","0"
"755","250000","sale","Harringay Road, London N15","51.58649","-0.098536","1st Sep 2021","0","0",NA,"1","1","0","0"
"756","315000","maisonette","The Larches, Hillingdon UB10","51.535751","-0.450956","1st Sep 2021","2","0",NA,"1","1","0","0"
"757","660000","semi-detached","Rochford Avenue, Chadwell Heath, Romford RM6","51.580785","0.12521","1st Sep 2021","4","0",NA,"1","0","2","0"
"758","3750000","semi-detached","Denbigh Gardens, Richmond TW10","51.458938","-0.291462","1st Sep 2021","5","3",NA,"0","0","3","0"
"759","750000","semi-detached","Chelmsford Gardens, Cranbrook, Ilford IG1","51.569919","0.054972","1st Sep 2021","4","2","1,755","0","0","2","0"
"760","2e+06","semi-detached","Townshend Terrace, Richmond TW9","51.46361","-0.293856","1st Sep 2021","3","3",NA,"0","0","3","0"
"761","7e+05","terraced","Chichester Road, Leytonstone E11","51.556292","0.01109","1st Sep 2021","4","2",NA,"0","0","0","0"
"762","425000","flat","Elite House, 15 St. Annes Street, Limehouse, London E14","51.512965","-0.029864","1st Sep 2021","2","2","598","0","1","0","0"
"763","460000","flat","Redwald Road, London E5","51.554073","-0.038708","1st Sep 2021","3","2","906","0","1","0","0"
"764","315000","property","Winterslow House, Flaxman Road SE5","51.469696","-0.100186","1st Sep 2021","0","0",NA,"1","1","0","1"
"765","1200000","flat","Whitechapel Road, London E1","51.519553","-0.059494","1st Sep 2021","3","0",NA,"0","0","0","0"
"766","6350000","flat","Hyde Park, London W2","51.507998","-0.166276","1st Sep 2021","3","0",NA,"0","0","0","0"
"767","116000","flat","Mercer Walk, Uxbridge, Greater London UB8","51.546827","-0.480911","1st Sep 2021","2","0",NA,"1","0","0","0"
"768","2999999","flat","Ravenscourt Road, London W6","51.495538","-0.236287","1st Sep 2021","3","0",NA,"0","0","0","0"
"769","840000","flat","Park Drive, London E14","51.5001481546392","-0.0154863745704467","1st Sep 2021","0","0",NA,"0","0","0","1"
"770","1215000","flat","Park Drive, London E14","51.5001481546392","-0.0154863745704467","1st Sep 2021","2","0",NA,"0","0","0","0"
"771","1675000","flat","Park Drive, London E14","51.5001481546392","-0.0154863745704467","1st Sep 2021","3","0",NA,"0","0","0","0"
"772","3100000","flat","Lincoln Square, London WC2A","51.513887","-0.115684","1st Sep 2021","3","2",NA,"0","0","0","0"
"773","599999","flat","Mill Hill, London NW7","51.608288","-0.209825","1st Sep 2021","2","0",NA,"0","0","0","0"
"774","980000","flat","Marsh Wall, London E14","51.499981","-0.017851","1st Sep 2021","2","0",NA,"1","0","0","0"
"775","6.5e+07","flat","Knightsbridge, London SW1X","51.502034","-0.16153","1st Sep 2021","4","0",NA,"0","0","0","0"
"776","6e+05","flat","St. Gabriel Walk, London SE1","51.493488","-0.101543","1st Sep 2021","0","0",NA,"0","0","0","1"
"777","1523000","flat","Worship Street, London EC2A","51.522097","-0.079653","1st Sep 2021","2","2",NA,"0","0","0","0"
"778","1552000","flat","Great Portland Street, London W1W","51.523789","-0.143961","1st Sep 2021","0","0",NA,"1","0","0","1"
"779","1839000","flat","Worship Street, London EC2A","51.522097","-0.079653","1st Sep 2021","2","2",NA,"0","0","0","0"
"780","2180000","flat","Great Portland Street, London W1W","51.523789","-0.143961","1st Sep 2021","2","2",NA,"0","0","0","0"
"781","2625000","flat","Great Portland Street, London W1W","51.523789","-0.143961","1st Sep 2021","2","2",NA,"0","0","0","0"
"782","3195000","flat","Worship Street, London EC2A","51.522097","-0.079653","1st Sep 2021","3","3",NA,"0","0","0","0"
"783","5875000","flat","Great Portland Street, London W1W","51.523789","-0.143961","1st Sep 2021","3","2",NA,"0","0","0","0"
"784","310000","flat","East Ham, London E6","51.538986","0.05149","1st Sep 2021","0","0",NA,"1","0","0","1"
"785","1e+06","flat","Oxford Street, London W1D","51.516706","-0.131162","1st Sep 2021","0","0",NA,"0","0","0","1"
"786","2350000","flat","Oxford Street, London W1D","51.516706","-0.131162","1st Sep 2021","3","0",NA,"0","0","0","0"
"787","3495000","flat","Oxford Street, London W1D","51.516706","-0.131162","1st Sep 2021","3","0",NA,"0","0","0","0"
"788","1179000","flat","Worship Street, London EC2A","51.522097","-0.079653","1st Sep 2021","0","0",NA,"1","0","0","1"
"789","1255000","flat","Worship Street, London EC2A","51.522097","-0.079653","1st Sep 2021","0","0",NA,"1","0","0","1"
"790","2693000","flat","Marylebone Square, Moxon Street, London W1U","51.519188","-0.15271","1st Sep 2021","0","0",NA,"1","0","0","1"
